restaurant_id,address,city,country,state,area,latitude,longitude
00075e78-5ac5-43a8-81f5-95ced5de3deb,1401 Tintern St Chesapeake VA 23320,Chesapeake,United States,VA,1401 Tintern Street,36.7647,-76.25289
000f0005-3a31-45b6-98b7-7a72b6e43d6f,34 Catoctin Cir SE Ste E Leesburg VA 20175,Leesburg,United States,VA,34 Catoctin Circle Southeast,39.10751,-77.56399
002936f9-638f-4d4a-a804-b37b17acd546,100 E Main St,Norfolk,United States,VA,Norfolk,36.84663,-76.29163
002f5a94-f47b-436f-aa7b-9d46c78b6a4a,6640 Richmond Hwy VA Alexandria 22306 United States,Alexandria,United States,VA,Old Town Alexandria,38.77279,-77.08204
00388cc6-09b5-4354-b7a0-ccd4a9ffa617,1330 S Fern St VA Arlington 22202 United States,Arlington,United States,VA,Arlington,38.86132,-77.05619
004299e8-9769-4c1d-b5f3-a1ad4a94c9cc,10645 Braddock Rd Ste B Fairfax VA 22032,Fairfax,United States,VA,10645 Braddock Road,38.82551,-77.31491
0043936c-0079-40a4-8190-223f1eb45ee0,6468 Hampton Roads Pkwy Suffolk VA 23435,Suffolk,United States,VA,6255 College Drive,36.87722,-76.42813
0044315d-a5b1-4859-8ddf-843be1d3b1ea,1112 W Broad St Falls Church VA 22046,Falls Church,United States,VA,Falls Church City,38.89351,-77.18712
0045f79c-a6ce-4b4a-a0ff-8c181deff389,2025 W Main St Salem VA 24153,Salem,United States,VA,,37.28835,-80.09343
004e4147-6afa-43be-a82b-aa4f0a6d8562,4700 Walmsley Blvd Inside 7 Eleven Richmond VA 23234,Richmond,United States,VA,British Camp Farms,37.47039,-77.48172
0054db08-7798-48ae-b9a0-d4a524ff5fe3,20789 Great Falls Plaza,Sterling,United States,VA,Suite 162,39.04014,-77.35835
005efc69-e519-49be-9b7f-7a43be647a4a,15200 Potomac Town Pl Ste 110 Woodbridge VA 22191,Woodbridge,United States,VA,15200 Potomac Town Place,38.62742,-77.28743
0066cfff-d686-4c98-b465-a3e7bafb44ce,365 Elden St Ste 100 Herndon VA 20170,Herndon,United States,VA,365 Elden Street,38.96691,-77.37359
006b9897-c790-47b9-bb88-cacba0d02e61,17860 Forest Rd Forest VA 24551,Forest,United States,VA,17860 Forest Road,37.37542,-79.24996
006d9a8a-e201-4293-8f08-e51e50a4a52d,2920 Columbia Pike,Arlington,United States,VA,Columbia Heights,38.8623,-77.08743
00728c76-e11b-4b75-9513-41a40ccfa69b,3538 Tidewater Dr Norfolk VA 23509,Norfolk,United States,VA,,36.88573,-76.26005
0075f1c0-673f-42a0-88c0-c0d206ebd82c,8637 Sudley Rd Manassas VA 20110,Manassas,United States,VA,8637 Sudley Road,38.76906,-77.48628
00781473-c195-4249-bf1c-24d2b1d724d3,114 E Fairfax St Falls Church VA 22046,Falls Church,United States,VA,Falls Church City,38.89025,-77.18337
007c71ce-710f-4114-9ae5-d4b493ff0cc6,16015 John Marshall Hwy,Broad Run,United States,VA,,38.81836,-77.66673
007d1ee2-5c0f-4467-b8ef-e57ac9d65f8d,7215 Columbia Pike Annandale VA 22003,Annandale,United States,VA,7217 Columbia Pike,38.83124,-77.1932
0081db9a-d37e-4926-9ba4-a8bced7ee2d0,7615 Heritage Village Plaza,Gainesville,United States,VA,7615 Heritage Village Plaza,38.80456,-77.6052
00841727-6468-4a6e-bd17-475c1a1c96e8,946 Grady Avenue Suite O,Charlottesville,United States,VA,946 Grady Avenue,38.03777,-78.49124
009345dd-6844-49d7-b607-5de0fd2dad07,3945 Brambleton Ave Cave Spring VA 24018,Cave Spring,United States,VA,3951 Brambleton Avenue,37.23394,-80.0088
0098881d-5d8c-45d9-ae80-55b05534beed,2902 Garber Way VA Woodbridge 22192 4004 United States,Woodbridge,United States,VA,Dale City,38.66116,-77.29928
009a0342-9712-47a0-bbf6-167dcfa33232,13800 Fribble Way Midlothian VA 23112,Midlothian,United States,VA,13800 Fribble Way,37.4072,-77.65607
00a3f5b6-ce15-4806-a16b-56478d53e32a,251 18th St S Arlington VA 22202,Arlington,United States,VA,Pentagon City,38.85831,-77.05097
00a75435-f767-4408-92ce-2d739c9e13c9,8702 Richmond Hwy Alexandria VA 22309,Alexandria,United States,VA,8702 Richmond Highway,38.72197,-77.12436
00ab8ec9-7647-465d-8e85-73d685f6e879,940 Cedar Rd Ste 102 Chesapeake VA 23322,Chesapeake,United States,VA,940 Cedar Road,36.71206,-76.27584
00b1405c-23fa-411c-b688-9419c5658cbe,918 MEDITERRANEAN AVE,Virginia Beach,United States,VA,,36.83718,-75.97959
00ba4b9f-7f88-4c48-9f39-78d285014b35,1371 E Little Creek Rd Norfolk VA 23518,Norfolk,United States,VA,1632 East Little Creek Road,36.91596,-76.23438
00c5e858-5621-4f86-80f8-a8a6811933e9,7322 Sudley Rd Manassas VA 20109,Manassas,United States,VA,7322 Sudley Road,38.79515,-77.51765
00d7b04a-f554-47e7-8c4e-e660e2d066f6,105 28th St Newport News VA 23607,Newport News,United States,VA,105 28th Street,36.97921,-76.43306
00dc8dcd-298e-4f92-b844-910985ede2fa,112 North 5th Street VA Richmond 23231 United States,Richmond,United States,VA,Richmond,37.54183,-77.43893
00e8fe08-c2f7-467c-b254-19a7fc0bf015,4229 Lafayette Center Dr Unit 1475 Chantilly VA 20151,Chantilly,United States,VA,4229 Lafayette Center Drive,38.90883,-77.47387
00f742f9-452b-42b7-94c8-6cbf52452eef,12950 Highland Crossing Dr Herndon VA 20171,Herndon,United States,VA,12950 Highland Crossing Drive,38.94947,-77.39431
00fb7c77-841b-456e-ab8e-13c345044e32,4540 Princess Anne Rd Ste 110 Virginia Beach VA 23462,Virginia Beach,United States,VA,4540 Princess Anne Road,36.80723,-76.13254
00fb98eb-814b-4562-be00-52ef4556b81c,17 Atlantic Ave Wachapreague VA 23480,Wachapreague,United States,VA,Wachapreague,37.6039,-75.68748
01063b55-68c1-49ec-b4d3-53973658fc4d,24630 S Point Dr Ste 100 Chantilly VA 20152,Chantilly,United States,VA,24640 Southpoint Drive,38.93661,-77.54083
010fe4ea-5bba-4cbc-8ef7-02975c391c67,8971 Ox Rd Lorton VA 22079,Lorton,United States,VA,8971 Ox Road,38.71554,-77.26247
0112877c-bafa-4d0f-b7eb-b31cc6c53565,1714 W Washington St Petersburg VA 23803,Petersburg,United States,VA,1714 West Washington Street,37.21931,-77.43313
0114bdfb-7c03-486d-98e0-718ff1f1fbf2,1126 N Military Hwy Norfolk VA 23502,Norfolk,United States,VA,1140 North Military Highway,36.86037,-76.20938
011b643d-1bc4-4a66-b5e5-715f2a7c6d93,7396 Bell Creek Road VA Mechanicsville 23111 United States,Mechanicsville,United States,VA,Mechanicsville,37.60864,-77.35473
011b92d8-e7e6-4025-abb2-c37ed056afb7,1205 N King St Hampton VA 23669,Hampton,United States,VA,1205 North King Street,37.04556,-76.34842
011d1b05-dd29-4424-903b-3560bb3c9834,9420 Battle St Manassas VA 20110,Manassas,United States,VA,9420 Battle Street,38.75055,-77.4726
011eea81-c97f-4912-a49e-ca42184baf66,207 West Brookland Park Boulevard,Richmond,United States,VA,,37.57141,-77.43563
011fbd17-6be9-435e-a7c5-0a1e8bcfb003,12218 Leesburg Pike Herndon VA 20170,Herndon,United States,VA,1015 Dranesville Road,39.01466,-77.37071
012537cf-4d27-4eae-80bb-66107c3e9957,10830 Promenade Ln Manassas VA 20109,Manassas,United States,VA,10830 Promenade Lane,38.79729,-77.51872
012ee73d-8aad-41f4-b5c0-aaeec09153b9,10427 North Street 102,Fairfax,United States,VA,Old Town Fairfax,38.84637,-77.30639
01366729-7ec7-440e-b4ab-8d71753848f8,4230 Annandale Rd Annandale VA 22003,Annandale,United States,VA,4230 Annandale Road,38.83132,-77.19718
013c9501-61dd-41a6-949c-fe3e9b10aec2,1710 E Little Creek Rd Norfolk VA 23518,Norfolk,United States,VA,1710 East Little Creek Road,36.91801,-76.22772
01417725-6941-4a48-9f1f-9e4b716915d2,4501 Haygood Road,Virginia Beach,United States,VA,4501 Haygood Road,36.87475,-76.13574
01428fd8-4b65-4030-b596-c9c8005a4982,141 Hillcrest Pkwy Chesapeake VA 23322,Chesapeake,United States,VA,141 Hillcrest Parkway,36.65689,-76.22516
01448d4b-2db4-4842-93c6-4a1c07ba39fc,4027 Bowdens Ferry Rd Norfolk VA 23508,Norfolk,United States,VA,3901 Hampton Boulevard,36.88178,-76.30477
0149a032-5c1e-405a-a970-2a9d25ded682,13003 Lee Jackson Memorial Hwy Fairfax VA 22033,Fairfax,United States,VA,13003 Lee Jackson Memorial Highway,38.87988,-77.39613
015a1854-83d2-4b8d-b72d-4725c64a4bea,435 Charles H Dimmock Pkwy Colonial Heights VA 23834,Colonial Heights,United States,VA,435 Charles H Dimmock Parkway,37.25231,-77.38323
0162a040-0738-49d9-92c9-0a9f961c9338,14130 Noblewood Plz Ste 103 Woodbridge VA 22193,Woodbridge,United States,VA,14067 Noblewood Plaza,38.64854,-77.31349
01631c43-4590-4882-98cd-216d3a916dae,8417 Old Courthouse Rd Vienna VA 22182,Vienna,United States,VA,8417 Old Courthouse Road,38.91547,-77.23668
01633803-db20-4f49-80eb-1340e05435e0,13283 Rivers Bend Blvd Chester VA 23836,Chester,United States,VA,13127 Rivers Bend Boulevard,37.35035,-77.35574
0164aff5-8d48-40bb-bb9a-dc2248a88c88,2005 Abbey Rd Charlottesville VA 22911,Charlottesville,United States,VA,2005 Abbey Road,38.03113,-78.44593
0168c465-ce16-4416-9f3f-a6e1e105f254,228 N Lynnhaven Rd Ste 125 Virginia Beach VA 23452,Virginia Beach,United States,VA,2724 Virginia Beach Boulevard,36.84169,-76.0693
016d773a-f439-4634-b1d1-dc405379290b,20880 Pidgeon Hill Dr Sterling VA 20165,Sterling,United States,VA,7 Pidgeon Hill Drive,39.03808,-77.41404
017abc77-91ec-4ade-b8ea-40819139ee2d,46 King Street,Onancock,United States,VA,,37.71262,-75.7495
017ddfa4-0724-4182-8b1c-e00070230dc9,8104 Club Dr Williamsburg VA 23188,Williamsburg,United States,VA,,37.3879,-76.75365
0180b8b5-cfc8-47bb-a5dd-b8764bc9b7bd,12441 Redwater Creek Rd Chester VA 23831,Chester,United States,VA,12441 Redwater Creek Road,37.35534,-77.40777
018880fb-c800-45a3-9336-ffb8b509260c,817 Botetourt Ct Ste 105 Chesapeake VA 23320,Chesapeake,United States,VA,817 Botetourt Court,36.74948,-76.24427
018dc65a-4d16-4309-bab3-d57aa518a980,2496 Rivermont Ave VA Lynchburg 24503 1546 United States,Lynchburg,United States,VA,Lynchburg,37.4352,-79.17104
0198d15d-8b49-42d1-bcea-34705bec6742,5810 Wessex Hundred Williamsburg VA 23185,Williamsburg,United States,VA,,37.23245,-76.72064
01a4dca5-cf8f-412b-aed5-b0e257adb068,3820A Gaskins Rd Richmond VA 23233,Richmond,United States,VA,,37.64141,-77.57109
01a55d41-bdd9-4b08-8c55-fc0f16c864c6,510 N Main St Hillsville VA 24343,Hillsville,United States,VA,,36.76605,-80.73686
01a67c86-a901-4bfe-9ba1-b6c3dd122ce1,45020 Aviation Dr Dulles International Airport Sterling VA 20166,Sterling,United States,VA,,38.95806,-77.44637
01a7e8c6-cdc7-41ee-b07e-faa3e8ecc526,20357 Exchange St VA Ashburn 20147 United States,Ashburn,United States,VA,Ashburn,39.05292,-77.45435
01af0bfc-9535-4265-a5e7-52c81a4d62ce,9325 Chamberlayne Road,Mechanicsville,United States,VA,9325 Chamberlayne Road,37.65282,-77.39639
01b200c4-43ed-429a-a872-3b77e0e870d5,4813 Beauregard St Alexandria VA 22312,Alexandria,United States,VA,4817 Beauregard Street,38.81927,-77.14266
01b33fb4-4d56-4d4d-bd32-80cd5f30724c,14900 Potomac Town Pl Ste 115 Woodbridge VA 22191,Woodbridge,United States,VA,14900 Potomac Town Place,38.63015,-77.2887
01bb579d-9227-4d03-b81c-91baf270cd3d,12820 Jefferson Davis Hwy Chester VA 23831,Chester,United States,VA,12820 Jefferson Davis Highway,37.35047,-77.41156
01ca7d79-5ed5-4168-9313-48f31b6b524a,219 E Davis St Culpeper VA 22701,Culpeper,United States,VA,219 East Davis Street,38.47288,-77.99433
01cf436a-5d11-4661-a1b1-58ac63141981,301 N Robinson St VA Richmond 23220 4020 United States,Richmond,United States,VA,Richmond,37.55521,-77.47125
01d53cc3-e74a-4ee2-80a7-e86175474c60,15042 Carrollton Blvd Carrollton VA 23314,Carrollton,United States,VA,,36.93333,-76.53044
01d9d3da-6460-4191-aeff-9c339f0ffcff,23221 0000 Richmond VA 23221,Richmond,United States,VA,Downtown,37.54073,-77.43605
01da134d-3e1a-4119-8797-06fa8995dc3a,90 Oak Tree Blvd Christiansburg VA 24073,Christiansburg,United States,VA,,37.14854,-80.41541
01ddacf9-834b-4553-88e7-54c33ae117f6,3100 Clarendon Blvd,Arlington,United States,VA,Clarendon,38.88634,-77.09535
01ecee4b-6b57-44cd-90d2-d6f167aaf4b5,618 westover dr,Danville,United States,VA,,36.58644,-79.43578
0217b138-1227-43d5-9d3d-95dbb4374f67,51 Towne Centre Blvd VA Fredericksburg 22407 1111 United States,Fredericksburg,United States,VA,Fredericksburg,38.28921,-77.50894
021e86bd-0e2e-430a-93f2-d5ae266307a4,400 Emmet St N Charlottesville VA 22903,Charlottesville,United States,VA,,38.04378,-78.50501
02224d1b-f1fb-451e-a12c-403986538b14,1780 Bridgeport Way,Suffolk,United States,VA,Ste 110,36.86364,-76.45719
022bbdcd-9d0b-4b44-84dc-ec5338c94a9d,933 N Quincy St,Arlington,United States,VA,Virginia Square,38.88184,-77.1075
0230bb5a-6bfb-4f71-b119-d78c0516e6e8,507 N Main St Pearisburg VA 24134,Pearisburg,United States,VA,,37.33082,-80.73952
02342d45-e68f-42ea-9228-1605b1cf7be9,7622 Richmond Hwy Alexandria VA 22306,Alexandria,United States,VA,Alexandria,38.75046,-77.08354
0234ef49-d2b8-40e9-90c0-5e826e41ba9d,6961 Hechinger Dr Springfield VA 22151,Springfield,United States,VA,6981 Hechinger Drive,38.79535,-77.18457
02358243-3367-47e2-b2b1-adf6efe20a65,1170 Memorial Blvd N Martinsville VA 24112,Martinsville,United States,VA,,36.69589,-79.89738
0235abc9-ca0f-48cb-a583-b0d2265716fe,2501 Taylor Rd Chesapeake VA 23321,Chesapeake,United States,VA,2501 Taylor Road,36.82753,-76.4095
0235d80d-cebf-4b5f-8493-279c7ba0fbe4,43800 Central Station Dr Ashburn VA 20147,Ashburn,United States,VA,43811 Central Station Drive,39.00772,-77.48664
0236c75c-a40a-4d40-b2ba-eeda699ca919,1 Towne Centre Blvd VA Fredericksburg 22407 United States,Fredericksburg,United States,VA,Fredericksburg,38.28987,-77.51194
023a1ac8-5c1b-43bc-a879-2ff50530bf68,1313 Hull street,Richmond,United States,VA,Manchester,37.5204,-77.44555
023b9554-e61c-405e-b760-d79014868b0a,312 Sandbridge Rd Virginia Beach VA 23456,Virginia Beach,United States,VA,,36.74601,-75.94634
02476ed1-9604-49bc-b2f9-d32117a47987,9917 Southpoint Pkwy Fredericksburg VA 22407,Fredericksburg,United States,VA,9917 Southpoint Parkway,38.23272,-77.50512
024c5654-d2c6-4bb2-a517-096a0d717899,4025 Brambleton Ave Cave Spring VA 24018,Cave Spring,United States,VA,4025 Brambleton Avenue Southwest,37.23195,-80.00884
02646241-1dc4-4364-a578-32a3e60907f8,9216 Stony Point Pkwy Ste 148 Richmond VA 23235,Richmond,United States,VA,Stony Point,37.54988,-77.57164
027212c4-af4b-49f9-87dc-bfc7571c1460,2166 S Pleasant Valley Rd Winchester VA 22601,Winchester,United States,VA,2166 South Pleasant Valley Road,39.1608,-78.16758
0275ec82-190c-4e91-b77f-048be1227d62,1743 King St Alexandria VA 22314,Alexandria,United States,VA,Alexandria,38.80684,-77.05903
028fa312-a7fb-4085-b355-96184f1da891,908 North Main St Suffolk VA 23434,Suffolk,United States,VA,908 North Main Street,36.74281,-76.58191
029c4291-87ec-4b37-b0ae-70405a345c25,1479 General Booth Blvd,Virginia Beach,United States,VA,Suite 110,36.7901,-75.99799
02a3147c-7003-42bf-b09b-739a26630364,8407 Centreville Rd Manassas Park VA 20111,Manassas Park,United States,VA,8448 Centreville Road,38.77295,-77.45184
02aa7fef-283c-4fb6-b837-16fe1e041fbe,21430 Epicerie Plz Sterling VA 20164,Sterling,United States,VA,21430 Epicerie Plaza,39.02351,-77.39477
02b4d17d-83d1-4434-a624-160d24385de7,4900 Libbie Mill East Blvd Ste 151 Richmond VA 23230,Richmond,United States,VA,Richmond,37.59121,-77.49408
02b6983d-9e8c-4b91-b348-0c76bead20d0,250 Peppers Ferry Rd Nw Christiansburg VA 24073,Christiansburg,United States,VA,250 Peppers Ferry Road Northwest,37.16299,-80.42795
02b6c922-6587-40b6-aff0-f006d884e512,1641 Independence Blvd Virginia Beach VA 23455,Virginia Beach,United States,VA,Virginia Beach,36.89363,-76.14202
02b9a50e-2798-4210-9132-42f3fb62fa7c,1182 Big Bethel Rd Hampton VA 23666,Hampton,United States,VA,1162 Big Bethel Road,37.05913,-76.42583
02c139e0-f90a-4c16-b261-0bc2a358919b,232 W Broad St Falls Church VA 22046,Falls Church,United States,VA,Falls Church City,38.88349,-77.17258
02c6cf2b-2476-493a-b65d-bfa8777394c6,50 North Wind Lane,Lexington,United States,VA,,37.81457,-79.39861
02cac6f2-17d7-4006-8f90-318221be537b,4918 Courthouse St Williamsburg VA 23188,Williamsburg,United States,VA,4918 Courthouse Street,37.27874,-76.74036
02cb1ea2-2d11-4458-a897-e650646d7cc1,1464 Mount Pleasant Rd Ste 4 Chesapeake VA 23322,Chesapeake,United States,VA,1464 Mount Pleasant Road,36.71542,-76.18897
02cd5724-8012-401b-86ea-74cd913bb944,111 Merchant St Winchester VA 22603,Winchester,United States,VA,111 Merchant Street,39.21977,-78.1338
02d79153-3cfe-433b-a8b9-9aa99bebce94,10460 Dumfries Rd Manassas VA 20110,Manassas,United States,VA,10460 Dumfries Road,38.7289,-77.47304
02dde1f4-a42e-41ca-97c3-33bb3786c1d5,1125 Queen St Alexandria VA 22314,Alexandria,United States,VA,Old Town Alexandria,38.80802,-77.05177
02ddfc3e-2736-40b3-9931-b2665342211a,2643 F George Washington Memorial Hwy,Yorktown,United States,VA,2643 George Washington Memorial Highway,37.12113,-76.45724
02e28064-17b1-4d81-a976-514870cc67da,176 Holt Garrison Pkwy Danville VA 24540,Danville,United States,VA,176 Holt Garrison Parkway,36.6006,-79.4163
02e381de-6587-4aca-871c-0dbbfcfbe2ff,316 High Steet,Portsmouth,United States,VA,316 High Street,36.83577,-76.29995
02ebc571-a192-4dbf-9791-2ab4d5781f33,6619 Courthouse Rd Prince George VA 23875,Prince George,United States,VA,6619 Courthouse Road,37.22328,-77.28457
02f1c1e0-b2f8-4993-bd91-66658f763969,3380 Pump Rd Richmond VA 23233,Richmond,United States,VA,3380 Pump Road,37.6501,-77.61344
02f7c0cf-16a9-4682-9d66-7cb39ca035cf,7730 Gunston Plz Gunston Plaza Lorton VA 22079 1897,Lorton,United States,VA,7734 Gunston Plaza,38.70513,-77.20859
030187f3-9b07-458c-be4a-da94826aea20,2320 Jefferson Davis Hwy Alexandria VA 22301,Alexandria,United States,VA,2320 Richmond Highway,38.82738,-77.05089
030791d0-416e-45a4-a386-662848f27fab,116 S Alfred Street VA Alexandria 22314 United States,Alexandria,United States,VA,Alexandria,38.8051,-77.0492
032a71a4-144f-4517-b650-7c2b7c6ff8db,7920 Jones Branch Dr Mclean VA 22102,Mclean,United States,VA,7900 Westpark Drive,38.92646,-77.216
0334a40d-d00c-4941-b1dd-0e82b458373f,701 S Atlantic Ave,Virginia Beach,United States,VA,,36.82147,-75.96858
033638e2-4d55-46ba-be61-a7efd2a81d0d,1316 Fordham Dr Virginia Beach VA 23464,Virginia Beach,United States,VA,1309 Fordham Drive,36.7996,-76.17454
03395e8b-8836-401d-bf7f-219cc0bdf1f2,205 Maple Ave E Vienna VA 22180,Vienna,United States,VA,205 Maple Avenue East,38.90331,-77.2621
03425804-bb55-4a0f-bbeb-99ecf1f39bc8,5033 Virginia Beach Blvd VA Virginia Beach 23462 United States,Virginia Beach,United States,VA,Virginia Beach,36.84428,-76.15329
03444868-2540-4e6f-940c-48f90ea1ff95,1101 Frederick Blvd Portsmouth VA 23707,Portsmouth,United States,VA,1130 Frederick Boulevard,36.82958,-76.33938
0344f8b9-c5e8-4646-ab07-b66788746c63,43230 Southern Walk Plaza Ashburn VA 20148,Ashburn,United States,VA,43230 Southern Walk Plaza,39.00851,-77.50853
03611d11-cf69-4926-ab1c-16f60170d15f,10 S King St Leesburg VA 20175,Leesburg,United States,VA,10 South King Street,39.11512,-77.56455
03622506-c8b5-44dc-9e11-22dbce58d45f,13170 Midlothian Tpke Midlothian VA 23113,Midlothian,United States,VA,13170 Midlothian Turnpike,37.50304,-77.64122
0363d344-f659-4d77-af6f-f9311dc30965,1576 N Franklin St Christiansburg VA 24073,Christiansburg,United States,VA,,37.1508,-80.41666
03640135-5b4b-488b-873e-57dc82924eed,7870 Tidewater Dr 201 Norfolk VA 23505,Norfolk,United States,VA,7862 Tidewater Drive,36.91516,-76.25336
0368df27-8325-47a0-9f94-3a68a757732c,760 Warrior Dr Ste A Stephens City VA 22655,Stephens City,United States,VA,760 Warrior Drive,39.09215,-78.17791
036fa970-d684-4dbc-8c82-ae5f2a6e0e6f,1600 King Street VA Alexandria 22314 United States,Alexandria,United States,VA,Alexandria,38.80624,-77.057
037c261a-bc16-49c2-8d3f-696eb6c5ef06,8059 W Broad St Richmond VA 23294,Richmond,United States,VA,8059 West Broad Street,37.62637,-77.53311
037f7def-ac46-42a0-83f4-d15f73e86de8,1100 S Hayes St m126 Arlington VA 22202,Arlington,United States,VA,Pentagon City,38.86316,-77.06121
038cc0a1-29dd-4391-9821-ef59251a4349,4219 John Marr Dr Annandale VA 22003,Annandale,United States,VA,4219 John Marr Drive,38.83166,-77.18849
03913e9b-535a-4cda-9aa9-f4f32f498196,303 S Pollard St,Vinton,United States,VA,303 South Pollard Street,37.27887,-79.89826
0392312f-089a-4f84-9ac6-b06486de033c,1956 Laskin Rd Virginia Beach VA 23454,Virginia Beach,United States,VA,1952 Laskin Road,36.84753,-76.036
03963b00-3a9b-4b6a-be1c-ac1f80afaa08,1009 Lynnhaven Mall Lp Virginia Beach VA 23452,Virginia Beach,United States,VA,701 Lynnhaven Parkway,36.81617,-76.07228
039d47cc-fe34-47fe-b903-48eb4e0a0a66,460 Turner St NW Blacksburg VA 24060,Blacksburg,United States,VA,460 Turner Street Northwest,37.23347,-80.42266
03a0a518-0351-47cb-8b8f-2a29856435ca,295 Merchant Walk Ave Bldg 2100 Charlottesville VA 22902,Charlottesville,United States,VA,295 Merchant Walk Avenue,38.01047,-78.49765
03a0cdae-d221-45c1-b21c-44179d01cd36,6224 Little River Tpke Alexandria VA 22312,Alexandria,United States,VA,6244 Little River Turnpike,38.81974,-77.14143
03a89380-e4e8-4271-b420-f5df6cd8ee6a,1350 S Main St ste 105,Blackstone,United States,VA,,37.06308,-78.0067
03a987f9-75ad-48b5-aad9-c497e2db5b75,253 Garrisonville Rd Stafford VA 22554,Stafford,United States,VA,Stafford,38.47355,-77.41694
03c9ee25-7105-4491-a176-42e3fc7ea9b4,12274 Jefferson Ave Newport News VA 23602,Newport News,United States,VA,12274 Jefferson Avenue,37.11142,-76.49807
03ded2c7-84fc-4a93-b22b-e702cbba4f0e,1 Saarinen Circle Space BM660 Terminal B Dulles VA 20166,Dulles,United States,VA,,38.95272,-77.44777
03e69967-0d57-42e3-86b0-7e3a80079e2e,1185 Seminole Trl Charlottesville VA 22901,Charlottesville,United States,VA,Charlottesville,38.06836,-78.48523
03ee2908-acba-4b7d-91ad-97bafa7e1776,9089 Liberia Ave Manassas VA 20110,Manassas,United States,VA,,38.75999,-77.45462
03fe1f04-182e-429c-96f9-522284135175,1710 Atlantic Ave Virginia Beach VA 23451,Virginia Beach,United States,VA,1710 Atlantic Avenue,36.8461,-75.97468
0404b0e7-b433-4e45-bda3-b055de6dc314,13037 Lee Jackson Memorial Hwy Ste C Fairfax VA 22033,Fairfax,United States,VA,13037 Lee Jackson Memorial Highway,38.87956,-77.3967
040d8445-ec9b-4e17-b252-fc9f7d0a4b2e,20148 0000 Ste 180 Ashburn VA 20148,Ashburn,United States,VA,43150 Broadlands Center Plaza,39.026,-77.50762
0412f0cd-ec52-4ab9-b5a3-aecc6583f691,5312 Kempsriver Dr Ste 103 Virginia Beach VA 23464,Virginia Beach,United States,VA,Chesapeake,36.80312,-76.17561
04186b7e-32e8-4e5b-a073-54f879e2eff6,241 Fort Evans Rd NE Leesburg VA 20176,Leesburg,United States,VA,,39.10519,-77.53949
042ca01e-a926-4bad-8c4f-0bf15c3a910c,15532 Wc Commons Way Midlothian VA 23113,Midlothian,United States,VA,15523 Wc Commons Way,37.51385,-77.69304
0431fc4a-4885-4263-832f-4ad208ff8294,12156 Fairfax Fairfax VA 22033,Fairfax,United States,VA,12156 Fairfax Towne Center,38.86693,-77.36802
04425fdf-49b1-4075-a362-5ed6276e2731,6341 Old Warwick Rd Richmond VA 23224,Richmond,United States,VA,Midlothian,37.50301,-77.51368
044a63f0-04aa-4521-b1d5-7b7e573c88e4,210 Hoffman Street,Alexandra,United States,VA,210 Swamp Fox Road,38.80204,-77.07089
044d4bb4-a1e3-4242-ab6a-22eae5758759,7505 Leesburg Pike Falls church VA 22043,Falls Church,United States,VA,7505 Leesburg Pike,38.90249,-77.20479
0452682a-3ff5-4253-ac29-717606102b18,1101 Blvd Colonial Heights VA 23834,Colonial Heights,United States,VA,1101 Boulevard,37.25027,-77.41042
045fa023-07ee-46e0-b350-faf917633426,2912 Lafayette Blvd Norfolk VA 23509,Norfolk,United States,VA,3036 Ballentine Boulevard,36.87568,-76.25423
0467ca76-85cd-4b73-9a47-c78349f64a90,804 England Street Ashland VA 23005,Ashland,United States,VA,804 England Street,37.75876,-77.46693
046f1eab-2343-44ae-a2c2-ecb3c761d0cb,14421 Chantilly Crossing Ln Chantilly VA 20151,Chantilly,United States,VA,,38.89422,-77.44764
046f98b3-b980-4a69-ba44-34ced2da1b94,2617 Moses Grandy Trl Ste 104 Chesapeake VA 23323,Chesapeake,United States,VA,2617 Moses Grandy Trail,36.73915,-76.34224
047aa9cf-3ed9-4563-a51d-22a72d3325c8,4521 Melrose Ave NW Roanoke VA 24017,Roanoke,United States,VA,4521 Melrose Avenue Northwest,37.29814,-80.01118
047d8831-0a4d-4115-ae25-e60190d75ab6,245 East Water Street,Harrisonburg,United States,VA,245 East Water Street,38.44781,-78.86574
047e80ca-c80f-480f-851c-544c4ae8c8e6,12246 West Broad Street,Richmond,United States,VA,Henrico,37.6604,-77.63701
04858b96-f4dd-42d2-b9eb-93aa7f672d89,18 E Williamsburg Rd Sandston VA 23150,Sandston,United States,VA,,37.52305,-77.31223
04867353-90d5-4f35-9503-be13536c393a,1000 Bank St Richmond VA 23219,Richmond,United States,VA,Downtown,37.53851,-77.4343
048bc371-32df-4580-b527-0d3ed516fcf3,9619 Fairfax Blvd VA Fairfax 22031 United States,Fairfax,United States,VA,Fairfax,38.86398,-77.27702
048c8a49-d9c5-44fa-8e59-a37d6df72eba,8246 Richmond Hwy Alexandria VA 22309,Alexandria,United States,VA,8246 Richmond Highway,38.73394,-77.0999
0492210c-1665-4e7e-9499-a5c8b61325bd,12184 Glade Dr VA Reston 20191 United States,Reston,United States,VA,Reston,38.93498,-77.36612
04948cdc-f5b6-48e3-800e-a7e5aff0c160,11217F Lee Hwy Fairfax VA 22030,Fairfax,United States,VA,11217 Lee Highway,38.85075,-77.33477
049641fd-9420-42d5-b155-dcd4d7cceffe,125 Chateau Donze Ln VA Hot Springs 24445 United States,Hot Springs,United States,VA,Hot Springs,38.0145,-79.8074
0497c055-a7eb-40c5-befb-f21a9a4d7735,3923 Kecoughtan Rd Hampton VA 23669,Hampton,United States,VA,3923 Kecoughtan Road,37.01259,-76.35331
049d4770-41bc-4537-bbbc-e5a545458f95,1588 S Main St Harrisonburg VA 22801,Harrisonburg,United States,VA,1476 South Main Street,38.42963,-78.88437
04b70b24-5bb9-488e-b55b-0e86ad6bf642,151 Granby St Norfolk VA 23510,Norfolk,United States,VA,151 Granby Street,36.84775,-76.29183
04c07ad9-26c1-4961-902c-d7f13ae3429a,1141 Elden St Ste 107 Herndon VA 20170,Herndon,United States,VA,1141 Elden Street,38.9642,-77.39677
04c52823-c4f6-49d6-9dab-c12ef108fe16,10001 Jefferson Davis Hwy Fredericksburg VA 22407,Fredericksburg,United States,VA,10007 Patriot Highway,38.22185,-77.50644
04ccd719-05c1-4bc4-bf6a-f3d9288dd785,13847 Hull Street Rd Midlothian VA 23112,Midlothian,United States,VA,13847 Hull Street Road,37.40534,-77.66015
04ce3fca-80b5-425f-b8f2-69b364b23420,7692 Richmond Highway VA Alexandria 22306 United States,Alexandria,United States,VA,Alexandria,38.75038,-77.08428
04d3ef56-3371-4185-a783-b9112765145a,4113 Main St Chincoteague VA 23336,Chincoteague,United States,VA,,37.93454,-75.3759
04db6c85-b05c-4cb6-9086-47d1bf2311dd,11883 Jefferson Ave Newport News VA 23606,Newport News,United States,VA,11883 Jefferson Avenue,37.08948,-76.48563
04dc7016-6650-42e0-b0f1-f8566d4ea4c6,17821 Georgia Ave Olney MD 20832,Olney,United States,MD,3128 Olney Sandy Spring Road,39.14939,-77.06492
04dec756-bde3-4300-94ca-dc6f2e06e906,7161 Lee Hwy Falls Church VA 22046,Falls Church,United States,VA,Falls Church City,38.87892,-77.17955
04dfb6f8-a136-4950-ab8f-85289d5cb7fd,14151 Park Meadow Dr Sully VA 20151,Sully,United States,VA,14151 Park Meadow Drive,38.86994,-77.43694
04e391ad-deb1-40ef-8891-10febb3b5d9f,2510 Blvd Colonial Heights VA 23834,Colonial Heights,United States,VA,2510 Boulevard,37.26346,-77.41206
04e970d7-85c5-43c4-a8ce-5d103755c665,2035 Von Schilling Dr Hampton VA 23666,Hampton,United States,VA,2027 Von Schilling Drive,37.0438,-76.39048
04ea6e32-430d-4cbf-85dc-e3c42bc11a29,42780 Creek View Plz VA Ashburn 20147 4053 United States,Ashburn,United States,VA,Ashburn,39.04335,-77.52121
04f48ccf-f02b-4a79-8831-817d0a2a84f1,301 Mill St Ne VA Occoquan 22125 United States,Occoquan,United States,VA,Vienna,38.90506,-77.26629
04f78b5f-dfd5-4d67-8eeb-446349b831c7,1000 Carlisle Ave VA Richmond 23231 3213 United States,Richmond,United States,VA,Richmond,37.5172,-77.40444
04ff060b-0c4a-458d-9603-af97a40c42c0,1102 W Main St Richmond VA 23220 4810,Richmond,United States,VA,Downtown,37.54205,-77.44233
05024d70-4805-4eec-9592-4144aa21c3b9,43930 Farmwell Hunt Plz Ste 128 Ashburn VA 20147,Ashburn,United States,VA,43930 Farmwell Hunt Plaza,39.02347,-77.4812
0502b16f-3c2b-453b-96b7-fa0195943430,1509 Enterprise Dr Lynchburg VA 24502,Lynchburg,United States,VA,1509 Enterprise Drive,37.35785,-79.24078
05062d4b-1988-43cf-b5ad-356d3ccec242,200 E Beech Dr Newport News VA 23601,Newport News,United States,VA,,37.04389,-76.45056
0506e13d-b306-40f0-a747-3fdcd44bea4c,704 Mariners Row,Newport News,United States,VA,Suite 108 City Center At Oyster Point,37.08578,-76.47336
0506ea99-909a-410f-a60b-2350a3b74469,1551 Premium Outlets Blvd Ste 250 Norfolk VA 23502,Norfolk,United States,VA,1551 Premium Outlets Boulevard,36.87897,-76.19434
050eec52-29ff-4347-ad9b-6183b50db101,10801 Bulloch Dr Manassas VA 20109,Manassas,United States,VA,10801 Bulloch Drive,38.80352,-77.52275
05109093-90da-48e2-b01a-b3bccf19af7f,2200 Crystal Dr Ste G Arlington VA 22202,Arlington,United States,VA,Crystal City,38.85422,-77.05011
051300fc-de9f-4de9-a02e-eef69a78a74a,5872 Leesburg Pike Falls Church VA 22041,Falls Church,United States,VA,5872 Leesburg Pike,38.85323,-77.13337
05135b01-0671-4a1b-82d0-b28c2598f714,8005 Creighton Pkwy Ste K Mechanicsville VA 23111,Mechanicsville,United States,VA,6102 Brashier Boulevard,37.61563,-77.31881
052cdc9f-3d5a-47d5-b924-3e383c7ecb99,5111 Westfields Boulevard,Centreville,United States,VA,5111 Westfields Boulevard,38.86672,-77.44701
052e160f-84de-4042-9ece-e28654394e3c,4000 Virginia Beach Blvd VA Virginia Beach 23452 United States,Virginia Beach,United States,VA,Virginia Beach,36.84182,-76.11383
05370f31-78ce-486c-a7c0-44a739aa8f1a,11210 Bundle Road,Chesterfield,United States,VA,,37.35412,-77.59589
053bf819-a20d-409e-ab4c-040350a898b6,277 S Van Dorn St Alexandria VA 22304,Alexandria,United States,VA,277 South Van Dorn Street,38.81089,-77.13366
053ff3af-a616-439e-a344-240925f14656,759 E Rochambeau Dr Cedar Vly Shopping Ctr Williamsburg VA 23188,Williamsburg,United States,VA,759 East Rochambeau Drive,37.34435,-76.73968
0546e176-4068-4234-a1d6-2c646e07f3f9,3833 US Hwy 29 Danville VA 24540,Danville,United States,VA,,36.66363,-79.37525
054fe2f7-44d9-4d21-99d6-d215265a6452,2080 South Indepedence Blvd Virginia Beach VA 23453,Virginia Beach,United States,VA,2080 South Independence Boulevard,36.789,-76.11113
05540d51-edda-4122-a680-3e577b65a923,33 Wicomico Dr Stafford VA 22554,Stafford,United States,VA,33 Wicomico Drive,38.46912,-77.41453
056043b0-7eb3-4899-8982-38505ecb76a1,10470 Dumfries Rd Manassas VA 20110,Manassas,United States,VA,10470 Dumfries Road,38.72899,-77.47248
0564d3ce-bab5-48bb-a738-b206774d901f,334 Southpark Cir Colonial Heights VA 23834,Colonial Heights,United States,VA,334 Southpark Circle,37.25512,-77.39408
056a7987-c6b6-4168-884e-e89f37b46bd4,1427 N Great Neck Rd Ste 104 Virginia Beach VA 23454,Virginia Beach,United States,VA,1340 North Great Neck Road,36.87918,-76.04348
0575085a-695d-4760-81c0-3cd6c9076a88,315 Cherokee lane,Troutville,United States,VA,,37.41532,-80.06283
0584e383-b661-4e85-8224-0bddd605fe91,1900 Governor's Pointe Drive VA Suffolk 23436 United States,Suffolk,United States,VA,Suffolk,36.89818,-76.49828
058509ea-7b53-4204-9a61-50ca86a4f2d2,5237 Providence Rd Unit 979 Virginia Beach VA 23464,Virginia Beach,United States,VA,5237 Providence Road,36.81245,-76.16707
0586ccc0-fdfd-4ce1-9aca-5fb5f89e55c8,401 N Poplar Ave Ste C Waynesboro VA 22980,Waynesboro,United States,VA,401 North Poplar Avenue,38.07459,-78.89627
058968c6-bdc3-4eb4-9c97-80cb26be90b0,430 W 21st St Norfolk VA 23517,Norfolk,United States,VA,430 West 21st Street,36.86905,-76.29121
0593a89c-462d-4df9-9083-1303721ede8f,1 E Church St,Martinsville,United States,VA,1 Church Street East,36.69111,-79.87306
0594e468-49f7-4d80-be63-c50b1e657f4e,375 W Shirley Ave Warrenton VA 20186,Warrenton,United States,VA,375 West Shirley Avenue,38.71621,-77.80766
05a9387c-6ee8-4504-9dba-010082c582fe,2554 Lee Hwy S Troutville VA 24175,Troutville,United States,VA,,37.38476,-79.9035
05ac3c2d-33f8-4bee-b30f-ffda3d529e4f,1964 Plank Rd Fredericksburg VA 22401,Fredericksburg,United States,VA,1964 Plank Road,38.29479,-77.49307
05b3e613-c261-4ab6-bf05-b44ca296314c,11 S Providence Rd Richmond VA 23236,Richmond,United States,VA,11 South Providence Road,37.49572,-77.54627
05c291c7-9b4a-40ce-b3f8-078674d3a14c,19855 Belmont Chase Dr Ste 175 Ashburn VA 20147,Ashburn,United States,VA,19855 Belmont Chase Drive,39.06712,-77.48511
05c46a10-ecc9-4dce-a8a4-c63cd935d95d,111 North Washington Highway,Ashland,United States,VA,111 North Washington Highway,37.76023,-77.46964
05cbbeff-3e0c-4419-bb65-ee43df1824fd,6681A Backlick Rd Springfield VA 22150,Springfield,United States,VA,6681a Backlick Road,38.77354,-77.18307
05cc91ba-b85a-4436-b286-713228b9ce41,2476 Nimmo Pkwy Ste 117 Virginia Beach VA 23456,Virginia Beach,United States,VA,2476 Nimmo Parkway,36.7552,-76.06465
05cee94a-37c0-4d94-93b6-5b8bddf25e14,12152 Fairfax Towne Center,Fairfax,United States,VA,12152 Fairfax Towne Center,38.86706,-77.36807
05d89c5d-5543-404f-a381-57223acf9bcd,7526 Mechanicsville Tpke Mechanicsville VA 23111,Mechanicsville,United States,VA,,37.60605,-77.37084
05e692a0-1bec-46df-95b1-7c519b1c5ae3,324 Elden St Herndon VA 20170,Herndon,United States,VA,328 Elden Street,38.96774,-77.37314
05e7e315-f142-4317-94af-678679e39dd8,2912 A Chain Bridge Rd Ste A Oakton VA 22124,Oakton,United States,VA,2912 a Chain Bridge Road,38.88262,-77.2989
05eb4d89-b3e3-4f5e-bc0f-1cd227375076,3600 Forest Hill Ave Richmond VA 23225,Richmond,United States,VA,Reedy Creek,37.51541,-77.47142
0600130c-9197-40d0-a826-c60ac2806562,6793 Wilson Blvd Falls Church VA 22044,Falls Church,United States,VA,6793 Wilson Boulevard,38.87334,-77.1551
060351a2-f71c-46f4-80e5-5b0d71ec96eb,8130 Arlington Blvd Falls Church VA 22042,Falls Church,United States,VA,8130 Arlington Boulevard,38.86694,-77.22691
06078574-8df8-489d-9464-2787a59ebe12,4001 Murray Pl VA Lynchburg 24501 United States,Lynchburg,United States,VA,Lynchburg,37.38227,-79.1675
060a365f-b986-4c0a-ba41-7478e4ad5417,7442 A Little River Turnpike Annandale VA 22003,Annandale,United States,VA,7442 Little River Turnpike,38.83259,-77.20226
06196af7-d027-466f-98ba-bffc92c96887,6238 Old Dominion Dr McLean VA 22101,Mclean,United States,VA,6238 Old Dominion Drive,38.92025,-77.14992
0621fd29-226c-4763-9f33-d6812c768450,1516 Holland Rd Suffolk VA 23434,Suffolk,United States,VA,1516 Holland Road,36.72507,-76.63607
062fb1f1-8791-4ead-808a-52f4ff619f42,10213 Washington Hwy Glen Allen VA 23059,Glen Allen,United States,VA,10213 Washington Highway,37.68431,-77.46267
0638da85-4388-4b4e-a824-33dc6c6b1f62,3073 Nutley St SW Fairfax VA 22031,Fairfax,United States,VA,3073 Nutley Street,38.86976,-77.26096
06396039-8f99-425a-b988-c4b89f2eb3ac,7111 Staples Mill Rd Richmond VA 23228,Richmond,United States,VA,Dumbarton,37.61473,-77.49721
0652940b-5a8f-468a-b193-df626479920a,2407 Pacific Ave Virginia Beach VA 23451,Virginia Beach,United States,VA,Virginia Beach,36.85226,-75.97702
06565254-4c92-44c5-b2f4-c96e1f5b6285,8010 Spotsylvania Towne Center Spotsylvania Towne Center Fredericksburg VA 22407,Fredericksburg,United States,VA,630 Spotsylvania Mall Drive,38.29166,-77.51289
065bac6a-6834-445c-b567-b24a17e59818,2037 Lynnhaven Pkwy Virginia Beach VA 23456,Virginia Beach,United States,VA,2029 Lynnhaven Parkway,36.79146,-76.12126
065e2ea1-a221-4a28-ba9f-0e9ad2fb15e9,4181 William Styron Square Newport News VA 23606,Newport News,United States,VA,4181 William Styron Square North,37.08425,-76.48828
065fdf94-d97f-4a56-91e7-755f98c45fb6,262 Cedar Ln Suite C D VA Vienna 22180 United States,Vienna,United States,VA,Merrifield,38.88779,-77.24384
0666109d-68f4-495c-91c9-b4700ff19091,1109 Main Street SW,Roanoke,United States,VA,,37.26454,-79.95872
066a03f4-f516-4bdd-8baf-0fff1e787695,807 John Marshall Hwy Front Royal VA 22630,Front Royal,United States,VA,807 John Marshall Highway,38.91016,-78.18425
066c6716-645e-44bf-84e6-ff0315de3013,10118 Brook Rd Glen Allen VA 23059,Glen Allen,United States,VA,10118 Brook Road,37.67436,-77.46166
06712ac4-7503-4be2-a4d0-22fd5554ba94,8 Old Fox Hill Rd Hampton VA 23669,Hampton,United States,VA,1103 North King Street,37.04474,-76.34706
0677d53d-715d-4f0d-9cab-d06fddb1be70,2200 Clarendon Blvd Arlington VA 22201,Arlington,United States,VA,Court House,38.89047,-77.0856
06858a04-531f-4642-b53a-238784a3a1de,168 Maple Ave W Vienna VA 22180,Vienna,United States,VA,168 Maple Avenue West,38.89954,-77.26676
06858c9a-be99-464f-bc9a-fa98b0eed3be,6550 Hampton Rd Pkwy Ste 107 Suffolk VA 23435,Suffolk,United States,VA,111,36.87803,-76.4187
0687b20c-eac9-4353-9c4d-dcbe8033e1d4,2058 S Pleasant Valley Rd Winchester VA 22601,Winchester,United States,VA,2058 South Pleasant Valley Road,39.16128,-78.16657
069547f4-c62a-4fca-a045-3f76fb2d3e46,5583 Guinea Rd,Fairfax,United States,VA,,38.79934,-77.29094
0697019b-86d8-4d77-9727-271d4046cc87,1460 Central Park Blvd Ste 106 Fredericksburg VA 22401,Fredericksburg,United States,VA,1460 Central Park Boulevard,38.3045,-77.51187
069ff2d1-5df7-4f08-be79-14720049a5c5,6828 Old Dominion Dr VA Mclean 22101 United States,Mclean,United States,VA,Mclean,38.93475,-77.17954
06a33e90-f3da-4e66-82b6-669f444a631e,19 Edelweiss Ln Staunton VA 24401,Staunton,United States,VA,,38.02145,-79.13823
06a45929-fd45-4376-af48-1182986a6d2e,2200 Crystal Drive Ste F,Arlington,United States,VA,Crystal City,38.8543,-77.05017
06a9120d-cc95-4cbc-9d62-bae70385fe3a,2300B Clarendon blvd VA Arlington 22201 United States,Arlington,United States,VA,Arlington,38.89017,-77.08682
06ac68c6-8bfb-4ab2-9d15-aa95210703a3,733 Eden Way N Ste 412 Chesapeake VA 23320,Chesapeake,United States,VA,717 Eden Way North,36.77118,-76.23623
06ae393c-3bea-471c-8796-21b5d3bfbbb4,109 N Washington Hwy Space 21 Space 21 Ashland VA 23005,Ashland,United States,VA,111 North Washington Highway,37.75936,-77.46874
06b1df5a-8dbd-4d67-8012-6bc73720e329,737 First Colonial Rd Virginia Beach VA 23451,Virginia Beach,United States,VA,737 First Colonial Road,36.8516,-76.02496
06bbec4e-bfe8-4721-a3cc-23cd244a9822,137 S Main St,Culpeper,United States,VA,103,38.47277,-77.99615
06bec896-91d5-424f-bb55-611e90dc61d9,325 Garrisonville Rd Ste 105 Stafford VA 22554,Stafford,United States,VA,325 Garrisonville Road,38.47489,-77.42174
06c09528-b3db-4fa1-aa24-f7c49b19765c,1106 Winterfield Crossing Midlothian VA 23113,Midlothian,United States,VA,1106 Winterfield Crossing,37.5078,-77.66514
06c3b584-8a17-4d26-b358-03245490cbaf,8135 George Washington Memorial Hwy A Yorktown VA 23692,Yorktown,United States,VA,8135 George Washington Memorial Highway,37.19064,-76.48872
06cea8ef-cdc7-4562-b08c-a09cfe45a362,211 25th St Virginia Beach VA 23451,Virginia Beach,United States,VA,211 25th Street,36.85367,-75.97747
06d28d0d-9e77-4f4b-b6d7-2d4da9582e71,13340 FRANKLIN FARM RD B,Herndon,United States,VA,13340 Franklin Farm Road,38.90839,-77.40748
06dbe170-b545-47c7-8e3d-1724d1f618a6,8150 Leesburg Pike,Vienna,United States,VA,8137 Leesburg Pike,38.9164,-77.22674
06e2d1c2-7d72-4293-8b3f-da7fd68b369d,25 Main St,Smithfield,United States,VA,,36.98253,-76.63036
06eb94bf-cdc5-4de2-bb9f-0aecd3fd406a,6605 George Washington Mem Hwy Yorktown VA 23692,Yorktown,United States,VA,,37.17302,-76.47559
06ef22f7-0ade-40b9-ae9b-4104a283a5a5,907 King St VA Alexandria 22314 United States,Alexandria,United States,VA,Alexandria,38.80561,-77.04948
06f0442d-d820-4755-998e-d746ca64e3d3,1501 Mount Vernon Ave VA Alexandria 22301 United States,Alexandria,United States,VA,Alexandria,38.81967,-77.05727
06f90615-1652-4ab7-a042-b9603bca871e,113 Hexham Dr Lynchburg VA 24502,Lynchburg,United States,VA,1509 Enterprise Drive,37.35588,-79.23963
07080594-03d6-47e7-8ce3-eb239ceb8b65,11500 Midlothian Tpke Spc 470 North Chesterfield VA 23235,North Chesterfield,United States,VA,11500 Midlothian Turnpike,37.50875,-77.60918
0711771d-edc1-4fea-bd2d-839735ccc276,1814 Todds Ln Ste G Hampton VA 23666,Hampton,United States,VA,2326 West Mercury Boulevard,37.04011,-76.40735
07191404-7744-4172-b2f6-55efda1b428f,2011 Crystal Drive,Arlington,United States,VA,Crystal City,38.85568,-77.04866
072219a2-4fa0-4e76-8a56-a1d1281b4389,385 Merchant Walk Square Charlottesville VA 22902,Charlottesville,United States,VA,385 Merchant Walk Square,38.01168,-78.49941
07225acf-0438-4445-8e44-1232515fb9cd,11390 Nuckols Rd Glen Allen VA 23059,Glen Allen,United States,VA,11390 Nuckols Road,37.68359,-77.58858
0726de50-1283-48cf-a7a0-fa5e2d5dad17,415 N 1st St,Richmond,United States,VA,Jackson Ward,37.54646,-77.43954
072b44eb-73be-4ddc-982e-5fc394ca1d9e,5214 Oaklawn Blvd Hopewell VA 23860,Hopewell,United States,VA,5113 Oaklawn Boulevard,37.25982,-77.32618
072e02d0-225e-4c72-91ea-7779dce5b7c0,2620 Battlefield Blvd Chesapeake VA 23322,Chesapeake,United States,VA,,36.63284,-76.20824
072ffb8c-d2aa-499e-bbf4-c3c8eca409a6,14555 Jefferson Davis Hwy Woodbridge VA 22191,Woodbridge,United States,VA,14555 Jefferson Davis Highway,38.63559,-77.26819
0730b477-9c61-4149-a4f1-08298952fafc,1710 E Little Creek Rd Ste 101 Norfolk VA 23518,Norfolk,United States,VA,1710 East Little Creek Road,36.91828,-76.22876
073119d7-2c15-4be1-abdf-b41de8b9aa95,11790 Baron Cameron Ave 703 429 1755,Reston,United States,VA,11790 Baron Cameron Avenue,38.96725,-77.35478
0734be36-1760-4575-82e9-f6e2e4fd3856,6975 George Washington Mem Hwy Gloucester VA 23061,Gloucester,United States,VA,6585 Market Drive,37.39097,-76.52946
07352e81-eca5-4174-ac94-31601844ef53,2072 Daniel Stuart Sq Woodbridge VA 22191,Woodbridge,United States,VA,2072 Daniel Stuart Square,38.63243,-77.27509
073a2f0b-1103-4df6-b354-a1d1c4aba2b3,346 Waterloo St,Warrenton,United States,VA,352 Waterloo Street,38.71711,-77.80735
073c1865-36d8-44e5-a740-9047e4b624de,5700 Salem Run Blvd Ste 106 Fredericksburg VA 22407,Fredericksburg,United States,VA,5700 Salem Run Boulevard,38.27501,-77.53424
073d548e-2e48-4301-81cf-acc82cc0517e,7812 Lee Hwy Falls Church VA 22042,Falls Church,United States,VA,7810 g Lee Highway,38.87584,-77.21391
0743f77b-1375-4490-ac1e-e45874691b60,2100 Starmount Pkwy Chesapeake VA 23321,Chesapeake,United States,VA,,36.81752,-76.44112
0744e56d-79a1-4b5a-81e9-c3d417dff819,900 Gardens Blvd Ste 500 Charlottesville VA 22901,Charlottesville,United States,VA,900 Gardens Boulevard,38.08466,-78.4708
0746f065-e274-4c7f-80f0-d056d17cabda,1124 Berryville Ave Winchester VA 22601,Winchester,United States,VA,1100 Berryville Avenue,39.18554,-78.14131
07485224-9371-46da-8d39-8917068c30c4,1961 Chain Bridge Road G21U,Mclean,United States,VA,7931 Tysons Corner Center,38.91787,-77.22127
074cb0c1-a778-4f8e-80ca-578802641e77,4218 Indian River Rd Chesapeake VA 23325,Chesapeake,United States,VA,4218 Indian River Road,36.82125,-76.22675
074f0505-fef3-4b76-a16f-183d4a286b2a,12454 Warwick Blvd,Newport News,United States,VA,63 Hidenwood Shopping Center,37.07196,-76.49269
07676029-edda-40da-933b-a90792ce10cf,4030 MacArthur Ave Richmond VA 23227,Richmond,United States,VA,Bellevue,37.58993,-77.4586
076e5cf3-1e42-4a47-a38c-ecb4c04a4ba6,124 Thompson St Ashland VA 23005,Ashland,United States,VA,124 Thompson Street,37.75934,-77.48324
07719db9-317f-408d-bcfe-d5b7e7e9c44d,11800 W Broad St Unit 1058 Richmond VA 23233,Richmond,United States,VA,11800 West Broad Street,37.65633,-77.61947
07730d10-48de-4bcb-aa7b-8dca3eb70696,3830 Mt Vernon Ave Alexandria VA 22305,Alexandria,United States,VA,Alexandria,38.83967,-77.06281
07754a16-ec2a-456b-8eb1-9803a4c870e9,7500 Richmond Rd Williamsburg VA 23188,Williamsburg,United States,VA,7500 Richmond Road,37.3717,-76.77387
0778d73e-460d-44d2-b1ed-338ba8e2e455,6210 Quander Rd Alexandria VA 22307,Alexandria,United States,VA,Alexandria,38.78371,-77.07352
07883fce-0815-4d9e-9d34-3a7a593e957c,122 Waller Mill Rd Ste G Williamsburg VA 23185,Williamsburg,United States,VA,122 Waller Mill Road,37.28881,-76.71764
07978043-ad60-46f1-aa16-c3c99ef3368b,14408 Jefferson Davis Hwy Woodbridge VA 22191,Woodbridge,United States,VA,14408 Jefferson Davis Highway,38.64031,-77.2686
079e10e4-66ab-467c-86b2-edd272f3baae,21385 Epicerie Plaza 150 Sterling VA 20164,Sterling,United States,VA,21385 Epicerie Plaza,39.02433,-77.39546
07a3bc18-bbb1-40c3-be2c-34984159a9c7,501 Kempsville Rd Ste 103 Chesapeake VA 23320,Chesapeake,United States,VA,Virginia Beach,36.74424,-76.22344
07b7d4cc-900f-44fc-94cf-422e011bd7d7,2910 Godwin Blvd Suffolk VA 23434,Suffolk,United States,VA,2910 Godwin Boulevard,36.77698,-76.58186
07c43c52-3127-4e74-81c5-3bd29d608a08,4810 Jefferson Davis Hwy Richmond VA 23234,Richmond,United States,VA,Jeff Davis,37.45951,-77.44255
07cb522c-89d1-40f1-a263-7ef0903446da,7505 Leesburg Pike Falls Church VA 22043,Falls Church,United States,VA,7505 Leesburg Pike,38.90225,-77.2047
07d52869-3d3c-4dd2-839e-5ce4aaceb220,13021 Worldgate Dr Herndon VA 20170,Herndon,United States,VA,13021 Worldgate Drive,38.95707,-77.40051
07da8f03-cb9c-4400-bddc-673e41dbcf0d,5450 Glenside Dr Richmond VA 23228,Richmond,United States,VA,Dumbarton,37.60898,-77.51795
07e0b125-aa47-47b9-a964-775c581ed616,907 Weyanoke Street,Norfolk,United States,VA,,36.87262,-76.31033
07ea3d09-c616-4388-9344-659532bfd1b4,2291 Seminole Lane,Charlottesville,United States,VA,Charlottesville,38.09871,-78.4623
07eec083-285f-4f60-9e16-a73f8c03b4f2,4109 Merchant Plz Woodbridge VA 22192,Woodbridge,United States,VA,4109 Merchant Plaza,38.67412,-77.33279
07f61bed-5d94-4a3b-a25f-d50dcb1bfb4b,1404 King Street,Alexandria,United States,VA,1404 King Street,38.80598,-77.05489
07f84a8b-9a06-4693-afdd-ced6a76b185a,1441 N Amherst Hwy,Amherst,United States,VA,,37.62133,-79.01412
07fbbf28-fd5d-4c69-9000-5a861c470095,3937 Portsmouth Blvd Chesapeake VA 23321,Chesapeake,United States,VA,4024 Portsmouth Boulevard,36.82457,-76.40467
07fbf2f1-b14e-49ff-94c2-9183aa778d26,John Paul Jones Circle,Portsmouth,United States,VA,Food Court,36.8453,-76.3073
07ff217c-108a-4200-bf86-6b58e5c3c339,13701 US Hwy 29 Ste 6 Chatham VA 24531,Chatham,United States,VA,,36.82569,-79.39808
0807f023-6728-4cb9-92c5-f95427aedd7a,7797 Centreville Rd Manassas VA 20111,Manassas,United States,VA,7911 Centreville Road,38.78675,-77.44865
080ac7f5-6454-4f7b-9f7c-d3a46735a9cc,7943b Tysons Corner Center VA Tysons 22102 United States,Tysons,United States,VA,Tysons,38.91737,-77.22133
081f95a2-2462-4ee9-891e-9f62bad562b3,414 Virginia Beach Blvd Virginia Beach VA 23451,Virginia Beach,United States,VA,414 Virginia Beach Boulevard,36.84505,-75.97821
08293b9d-1fe8-4def-b013-f9849203af63,4500 Daly Dr Chantilly VA 20151,Chantilly,United States,VA,4500 Daly Drive,38.8848,-77.44459
0842d812-a28d-4bcf-9083-6941ca3f5e83,1287 Carl D Silver Parkway,Fredericksburg,United States,VA,1251 Carl D Silver Parkway,38.29948,-77.50989
0844bece-0f86-4c68-a5f1-d659b7b8b998,511 North Madison Road,Orange,United States,VA,,38.25556,-78.11402
084ece40-8ce9-4b24-bcf4-63daa8222122,145 Commonwealth Dr VA Wytheville 24382 United States,Wytheville,United States,VA,Roanoke,36.95645,-81.10032
0856cc10-5f2c-4dc1-9b84-7c012f23722c,256 W Lee Hwy Warrenton VA 20186,Warrenton,United States,VA,256 West Lee Highway,38.72814,-77.79923
08576454-0eab-41f0-ae07-b8997b49183c,1700 N Beauregard St VA Alexandria 22311 United States,Alexandria,United States,VA,Alexandria,38.83336,-77.1231
08657aaa-5ade-471b-b24f-9719df4b3b65,1545 Richmond Rd Williamsburg VA 23185,Williamsburg,United States,VA,1545 Richmond Road,37.29203,-76.7233
0869ddfa-9cb8-44cd-bbad-03438cbeca81,1010 N Glebe Road,Arlington,United States,VA,1010 North Glebe Road,38.88335,-77.11707
086e5371-af62-4e77-a50a-64f36c828b05,6531 Little River Tpke Alexandria VA 22312,Alexandria,United States,VA,6531 Little River Turnpike,38.82119,-77.15921
086efee3-55bc-4b4b-955d-94ead81029ce,4817 Beauregard St Alexandria VA 22312,Alexandria,United States,VA,4817 Beauregard Street,38.81904,-77.14276
0872c224-4739-480e-9eb1-f39043d06bd8,9573 Braddock Rd Fairfax VA 22032,Fairfax,United States,VA,Fairfax,38.81764,-77.27615
08777c96-f920-4b5d-8c5d-038ebc07f9b3,13126 Midlothian Turnpike Midlothian VA 23113,Midlothian,United States,VA,13126 Midlothian Turnpike,37.50431,-77.64219
0884e6b3-3387-47c5-81a8-de1bc360ee0e,4199 Winchester Rd Ste A Marshall VA 20115,Marshall,United States,VA,,38.86307,-77.84883
088d3e9c-21d6-4a59-aded-c19c62bf6a37,8270 Greensboro Drive,Tysons,United States,VA,8260 Greensboro Drive,38.92361,-77.23062
08904e7e-e3d6-48de-80fd-b0852753fc84,3865 Electric Rd VA Roanoke 24018 United States,Roanoke,United States,VA,Roanoke,37.2233,-79.98754
0890a876-e4e3-4551-bb1a-ffcb6543faf7,2465J1 Centreville Rd Herndon VA 20171 3013,Herndon,United States,VA,,38.9355,-77.41305
08a402cf-405a-4657-9d07-6850239d2380,4443 S Laburnum Ave Richmond VA 23231,Richmond,United States,VA,4443 South Laburnum Avenue,37.52769,-77.35562
08aaefcd-4b94-4bd1-9fb5-7f8d9ffcb269,3519 Oaklawn Blvd Hopewell VA 23860,Hopewell,United States,VA,3512 Oaklawn Boulevard,37.2751,-77.31282
08b30f34-4333-44af-876f-82c8fe390e76,494 McLaws Cir Williamsburg VA 23185,Williamsburg,United States,VA,494 Mclaws Circle,37.24848,-76.66061
08bbad93-a6be-4217-b6cc-6415c19ad1bf,206 W Market St VA Charlottesville 22902 5027 United States,Charlottesville,United States,VA,Charlottesville,38.03172,-78.48225
08c50420-35d3-4a68-9434-90993e857394,448 GREEN ST,Portsmouth,United States,VA,702 High Street,36.83618,-76.30569
08d1f1a7-f184-4e45-b181-6dc8eb32d994,250 Oakleigh Ave Appomattox VA 24522,Appomattox,United States,VA,,37.35447,-78.82566
08df38e2-b5dd-4414-a613-bd0f3b127d1a,320 Granby St Norfolk VA 23510,Norfolk,United States,VA,320 Granby Street,36.85033,-76.29004
08e65eb1-f0a9-4a79-98e3-c624f160b669,1901 Colley Ave Norfolk VA 23517,Norfolk,United States,VA,2019 Colley Avenue,36.87075,-76.29667
08eaae9a-533d-4b39-b9ec-977f776e2d14,901 Jefferson St Ste 1 Lynchburg VA 24504,Lynchburg,United States,VA,Lynchburg,37.41559,-79.14036
08ef0144-80ea-4c48-b4f5-ab562e1a849f,21435 Epicerie Plz Sterling VA 20164,Sterling,United States,VA,21435 Epicerie Plaza,39.02327,-77.39457
08fe8281-17e2-4c02-af3b-45e841101abc,38 S King St Leesburg VA 20175,Leesburg,United States,VA,38 South King Street,39.11432,-77.56495
0904cecc-91cb-47ca-b431-c6ff101848d9,1327 Chain Bridge Rd McLean VA 22101,Mclean,United States,VA,1327 Chain Bridge Road,38.93919,-77.17445
090a9794-0dbd-444c-a1fd-cb701709243a,1001 Independence Blvd Bedford VA 24523,Bedford,United States,VA,,37.34167,-79.5003
0918acd8-1d21-4894-a21b-88a87eb2873c,336 Laskin Rd VA Virginia Beach 23451 United States,Virginia Beach,United States,VA,Virginia Beach,36.85886,-75.98087
0918cc51-854b-4a8a-9764-0ecefc2a29ed,300 East Main Street,Charlottesville,United States,VA,Charlottesville,38.02989,-78.48005
091a7043-86df-4e80-b90e-63e9fca0ea81,7386 Harbour Towne Pkwy Ste 9 Suffolk VA 23435,Suffolk,United States,VA,7386 Harbour Towne Parkway,36.87534,-76.43704
09205bc8-a042-40ff-8c38-bae784ace4c2,1899 N Armistead Ave Hampton VA 23666,Hampton,United States,VA,1002 West Mercury Boulevard,37.04124,-76.37686
0922603e-1a8e-4c2c-934a-e3eca86958e6,7911 Westpark Dr VA Tysons 22102 United States,Tysons,United States,VA,Tysons,38.92438,-77.21896
0930f85b-28a2-457b-a6e5-4c9c3523125d,4510 Old Columbia Pike Annandale VA 22003,Annandale,United States,VA,4510 Old Columbia Pike,38.82602,-77.17392
093245a1-6ac9-4e33-8f0c-6220cb8dc983,8634 Richmond Hwy Alexandria VA 22309,Alexandria,United States,VA,8626a Richmond Highway,38.72425,-77.12055
09345e8d-8456-40aa-b87b-39db1a1c1076,1777 Fortune Park Rd Charlottesville VA 22911,Charlottesville,United States,VA,1777 Fortune Park Road,38.12726,-78.43992
093bb570-e231-4aaf-ae77-3504e06c7635,2650 Anderson Hwy Powhatan VA 23139,Powhatan,United States,VA,,37.52479,-77.82971
0945e8ca-f57d-4cb9-8d6b-43e5e7eff223,5845 Washington Blvd Arlington VA 22205,Arlington,United States,VA,5845 Washington Boulevard,38.88537,-77.1405
0946300f-8ed9-4c24-aafc-45286632f8a4,13949 Metrotech Dr Chantilly VA 20151,Chantilly,United States,VA,13949 Metrotech Drive,38.89448,-77.42665
0957a3ac-6555-4556-9dfc-2ed0b491d909,167 Electric Rd Salem VA 24153,Salem,United States,VA,121 South Electric Road,37.29646,-80.02784
095d06c2-d701-479a-bace-d4c961ca509e,6799 Wilson Blvd Unit 5 6 Falls Church VA 22044,Falls Church,United States,VA,6795 Wilson Boulevard,38.87293,-77.15399
095f2c62-5ea3-43d8-be76-ce219403fba1,2400 Mount Vernon Ave Alexandria VA 22301 1330,Alexandria,United States,VA,Alexandria,38.82713,-77.05888
096b4021-ef47-4d67-82c9-df4e13ce0800,2414 Hull St Richmond VA 23224,Richmond,United States,VA,Swansboro,37.5141,-77.45439
096bbec0-2d18-401e-920e-ea6cdce1b453,1208 Main St,Lynchburg,United States,VA,1118 Main Street,37.41225,-79.13974
09705f7b-b0a5-41a5-848b-2c54f3b33414,165 Tazewell St,Wytheville,United States,VA,,36.9501,-81.08421
0970f8b1-7f7e-4c2b-9cb8-fcc941ad1fbc,610 Stoney Creek LN 23,Newport News,United States,VA,620 Stoney Creek Lane,37.14185,-76.52074
097c7fe1-ec9c-4dec-b79a-e62dca283370,12126 Jefferson Ave Newport News VA 23602,Newport News,United States,VA,12105 Jefferson Avenue,37.1044,-76.4943
097ffb2b-4961-4f42-a883-b13e293b7d61,1025 Richmond Ave Staunton VA 24401,Staunton,United States,VA,1025 Richmond Avenue,38.13686,-79.04511
0983d9cd-c503-4980-94ad-2e50b8e21b3a,2505 E Broad St Ste 100 Richmond VA 23223,Richmond,United States,VA,Church Hill,37.53133,-77.41849
0984f1ad-18ac-46a7-bdd6-a1fc21de33c8,3244 Holland Rd Ste 110 Virginia Beach VA 23453,Virginia Beach,United States,VA,3244 Holland Road,36.79699,-76.08213
0988b48f-0d1d-4db1-a854-7c306d4f49ab,8498 CENTREVILLE RD,Manassas Park,United States,VA,8448 Centreville Road,38.77208,-77.45285
09920068-ef03-4930-914f-bfe36ce27a83,6429 Centralia Rd,Chesterfield,United States,VA,6423 Centralia Road,37.37355,-77.49982
099472da-9378-4949-97de-2b36fc474071,6925 Hull Street Rd VA North Chesterfield 23224 2547 United States,North Chesterfield,United States,VA,Richmond,37.47476,-77.52209
0997515d-0ca2-4204-b5bb-f38cea1a89d8,3345 W Cary St Richmond VA 23221,Richmond,United States,VA,Carytown,37.55444,-77.48454
099a1927-6e9e-447a-9c38-44f80c3483e0,244 Granby St Norfolk VA 23510,Norfolk,United States,VA,244 Granby Street,36.84916,-76.2906
099ecdd0-7f84-49ef-80f9-da386c223239,825 Wonder Rd Ste 110 Stafford VA 22554,Stafford,United States,VA,,38.42446,-77.4296
09a3b063-ce50-4519-89a9-d4152fa26cb5,21 N 17th St,Richmond,United States,VA,Shockoe Bottom,37.53396,-77.42778
09a8b760-8dfa-4353-8cd9-fae5c9849f14,305 High St Ste 305 Portsmouth VA 23704,Portsmouth,United States,VA,305 High Street,36.83494,-76.29954
09ae4e15-27a7-4ba5-be89-0bc3b3038c8a,10216 Dumfries Rd Manassas VA 20111,Manassas,United States,VA,10167 Hastings Drive,38.73271,-77.47466
09baef38-4a59-489f-ac9a-4a1b02d46fd4,2417 Taylor Rd Chesapeake VA 23321,Chesapeake,United States,VA,2417 Taylor Road,36.82618,-76.40914
09c0539f-65ba-4f9f-8234-35ca394e0472,12697 Galveston Ct Manassas VA 20112,Manassas,United States,VA,12697 Galveston Court,38.68043,-77.36419
09c327cd-97e8-41ec-b017-c40f83fea686,1267 Hobbs Hole Dr Tappahannock VA 22560,Tappahannock,United States,VA,,37.90225,-76.86011
09caac24-0b04-4110-b84a-6c74b504707e,225 Fort Evans Rd NE Leesburg VA 20176,Leesburg,United States,VA,225 Fort Evans Road Northeast,39.10948,-77.5371
09d3f1ca-4d92-4528-a490-78935768d8a6,249 Ridge McIntire Rd Charlottesville VA 22903,Charlottesville,United States,VA,249 Ridge Mcintire Road,38.03215,-78.48553
09da14e2-734c-42e3-bf65-710ef8159041,3830 Franklin Rd SW VA Roanoke 24014 3044 United States,Roanoke,United States,VA,Cave Spring,37.23329,-79.97102
09dfb4b5-5d72-4865-bd9f-70255be3adb9,2723 Buford Rd Richmond VA 23235,Richmond,United States,VA,2723 Buford Road,37.53544,-77.56132
09fe5c81-b934-44b9-9652-a0b03a6b5437,1000 N Fayette St Alexandria VA 22314,Alexandria,United States,VA,1000 North Fayette Street,38.81609,-77.05038
0a04ecf6-a2ea-4cf3-9ccd-8aa62ea082ae,1002 Aragona Blvd Virginia Beach VA 23455,Virginia Beach,United States,VA,,36.86941,-76.14663
0a13dee5-dea4-4ecf-aa2f-69b5f3480536,15 S Gateway Dr Ste 111 Fredericksburg VA 22406,Fredericksburg,United States,VA,28 South Gateway Drive,38.34459,-77.49574
0a1a6c17-acbd-4bcf-8140-6a10f7f51b29,45425 Holiday Park Dr VA Sterling 20166 United States,Sterling,United States,VA,Sterling,38.98601,-77.42819
0a1ba84f-fecd-412c-a033-d2b14b35838f,11062 Main St Fairfax VA 22030,Fairfax,United States,VA,11062 Lee Highway,38.85261,-77.32727
0a1bea73-22df-4701-8512-45c9a4f776d6,114 Sheraton Dr Salem VA 24153,Salem,United States,VA,114 Sheraton Drive,37.32052,-80.03175
0a23fa43-1801-42cd-9433-1d59ce102575,30 Baxter Dr Harrisonburg VA 22801,Harrisonburg,United States,VA,3140 South Main Street,38.41249,-78.90349
0a281ed2-e29b-466e-bc36-9a1aaa5c9145,1369 New York Ave NE,Washington,United States,DC,Lanham,38.91526,-76.98526
0a296aee-7092-47aa-9253-7ddaba78a75f,1 Saarinen Cir Concourse B Dulles International Airport Dulles VA 20166,Dulles,United States,VA,,38.94865,-77.45297
0a2b1523-e2e2-4241-a13f-46a8a3e8b0e0,7920 Fort Hunt Rd Alexandria VA 22308,Alexandria,United States,VA,National Harbor,38.74266,-77.05702
0a31730c-f354-4f30-8d3c-79c8ebdad2dd,2501 Centreville Rd VA Herndon 20171 United States,Herndon,United States,VA,Herndon,38.95213,-77.4091
0a3328e2-074d-44e9-895a-c392cb8287ae,637 10th St Virginia Beach VA 23451,Virginia Beach,United States,VA,,36.8373,-75.98108
0a33292a-c096-49bf-9f33-d2ce39d8caec,4494 Lookout Rd Virginia Beach VA 23455,Virginia Beach,United States,VA,,36.91514,-76.12509
0a35cec9-696b-4bdb-a1dc-93d5c5e01562,92 Main St Warrenton VA 20186,Warrenton,United States,VA,Warrenton,38.71229,-77.79326
0a471fd0-7bcf-41c4-a22f-cfb40dd72a6a,4231 Markham St Annandale VA 22003,Annandale,United States,VA,4231 Markham Street,38.83261,-77.1979
0a489cdd-fb98-48b3-be92-db0d47817f1c,University Mall 10621 Braddock Rd Ste H Ox Rd Fairfax VA 22032,Fairfax,United States,VA,Old Town Fairfax,38.84708,-77.30491
0a51bdd1-ec33-4e04-9251-6b398f3f4f34,348 Old Riverside Dr Danville VA 24541,Danville,United States,VA,348 Old Riverside Drive,36.58755,-79.42294
0a57b764-6622-418d-a244-ab90549ee837,407 N Bridge St Bedford VA 24523,Bedford,United States,VA,,37.33808,-79.52208
0a5e4d35-6cd3-4659-9810-dfb8ba08ada2,5630 Portsmouth Blvd Portsmouth VA 23701,Portsmouth,United States,VA,5630 Portsmouth Boulevard,36.82037,-76.37962
0a612749-8fe6-4264-91ee-3b226029b8f4,12975 Highland Crossing Dr Unit C Herndon VA 20171,Herndon,United States,VA,12975 Highland Crossing Drive,38.94953,-77.39585
0a695429-bf74-475e-a517-14055b0981c5,6116 Jahnke Rd Richmond VA 23225,Richmond,United States,VA,Cedarhurst,37.52091,-77.50985
0a750014-78be-4a88-b53f-6f01ff034e43,9522 Burke Rd,Burke,United States,VA,9522 Burke Road,38.79532,-77.27187
0a78e3ba-73c1-4f29-96ec-ccb40d88b0b9,11750 Fair Oaks Mall Fairfax VA 22033,Fairfax,United States,VA,11946 U Fair Oaks Mall,38.86275,-77.35864
0a879f20-4dbb-4a1c-b23f-d03d90ab5754,3200 High St Portsmouth VA 23707,Portsmouth,United States,VA,3210 High Street,36.83473,-76.34073
0a8e028d-4404-4443-bbf9-df941ba5218c,309 William Street,Fredericksburg,United States,VA,Fredericksburg,38.30336,-77.46121
0a960792-5170-4015-81d1-1e440710d4ea,43520 Yukon Dr Ashburn VA 20147,Ashburn,United States,VA,43520 Yukon Drive,39.01029,-77.49374
0a99bea9-aa74-42b3-a170-99031e91b216,20602 Easthampton Plz Ashburn VA 20147,Ashburn,United States,VA,20602 Easthampton Plaza,39.05159,-77.45446
0aa46a43-ff10-43c3-b1a3-d0c5c9706be8,13812 Metrotech Dr Chantilly VA 20151,Chantilly,United States,VA,13804 Metrotech Drive,38.89259,-77.42542
0ab46b8b-ae9e-4927-b795-d9c0c76ac6cb,3016 E Princess Anne Rd Norfolk VA 23504,Norfolk,United States,VA,3109 East Princess Anne Road,36.85968,-76.25064
0ab787b3-de6e-4a55-9a73-170170769791,6212 College Dr Suffolk VA 23435,Suffolk,United States,VA,6255 College Drive,36.88056,-76.42421
0ac9f177-4e7f-499a-a745-1ed486a8734d,507 N Royal Ave Front Royal VA 22630,Front Royal,United States,VA,620 North Royal Avenue,38.92538,-78.19351
0ad43c4a-7cf7-4e2a-9b48-e6065030b964,2445 Centreville Rd Fl 4 Herndon VA 20171,Herndon,United States,VA,2443 Centreville Road,38.95,-77.40925
0ad6d4bd-e0ce-477f-a6e2-a39d4c867cbd,6701 Franconia Rd Springfield VA 22150,Springfield,United States,VA,6701 Franconia Road,38.77769,-77.17552
0ad99e37-79ba-4051-8152-280936f74d52,4182 Dale Blvd Woodbridge VA 22193,Woodbridge,United States,VA,4182 Dale Boulevard,38.64426,-77.33557
0ae1a40c-7ed9-453c-a2dc-b52704c17699,7511 Leesburg Pike,Falls Church,United States,VA,7511 Virginia 7,38.90323,-77.2047
0ae1fc05-658f-4102-a164-624a8426e854,7748 Midlothian Turnpike,Bon Air,United States,VA,7748 Midlothian Turnpike,37.50027,-77.54114
0aeb18ac-23c1-44e3-b8bb-384813648e07,6550 Hampton Roads Pkwy Ste 102 Suffolk VA 23435,Suffolk,United States,VA,111,36.87803,-76.4187
0aeed426-44a2-4c1f-9a3c-c46e6e13e29e,46116 Lake Center Plaza VA Sterling 20165 United States,Sterling,United States,VA,Sterling,39.03296,-77.40377
0af71de8-561d-4355-ad7e-2a269faa3857,6083 High St W Portsmouth VA 23703,Portsmouth,United States,VA,6083 High Street West,36.86074,-76.39877
0af7ac8e-c89a-4b43-b6d5-32da2fd3def2,5810 Kingstowne Ctr Ste 140 Alexandria VA 22315,Alexandria,United States,VA,5920 Kingstowne Towne Center,38.77326,-77.13511
0afbe315-8546-4228-8c24-4b2273141f67,8809 Jefferson Davis Hwy North Chesterfield VA 23237,North Chesterfield,United States,VA,,37.40496,-77.43268
0afd94cc-4437-4019-9c91-9d3413bf743c,6500 Springfield Mall Ste 6805 Springfield VA 22150,Springfield,United States,VA,6655 Springfield Mall,38.7745,-77.17541
0aff6053-4e77-4d15-939a-41756005644c,165 Glyndon St Se VA Vienna 22180 United States,Vienna,United States,VA,Vienna,38.90421,-77.26068
0b0915b8-2ed3-40df-a948-2996d02103ef,5700 E Virginia Beach Blvd VA Norfolk 23502 United States,Norfolk,United States,VA,Norfolk,36.85588,-76.20738
0b09a075-47c7-463c-8ca1-f2cee3aeeab8,13188 Marina Way VA Woodbridge 22191 United States,Woodbridge,United States,VA,Lorton,38.66898,-77.24341
0b0dd2db-c6c7-4535-975d-40a2c41f0be0,911 1 2 W Grace St Richmond VA 23220,Richmond,United States,VA,The Fan,37.55023,-77.4522
0b178a35-8d87-4f5d-93a3-a5a7c06a2d3a,2045 Barracks Rd Charlottesville VA 22903,Charlottesville,United States,VA,1230 Emmet Street North,38.05221,-78.49862
0b281b48-763f-484e-b734-1dcb2d3ae376,14455 Jefferson Davis Hwy Woodbridge VA 22191,Woodbridge,United States,VA,14455 Richmond Highway,38.63843,-77.26742
0b306bad-af75-40a6-8d61-c2256a31ffa6,6596 Richmond Rd Williamsburg VA 23188,Williamsburg,United States,VA,6596 Richmond Road,37.34456,-76.75665
0b31a9ef-d29d-4664-82b8-ca67edf8bc56,421 Monticello Rd VA Charlottesville 22902 5744 United States,Charlottesville,United States,VA,Charlottesville,38.02452,-78.47499
0b340100-6744-4e72-94aa-add9fc717ee3,1017 Sophia St Fredericksburg VA 22401,Fredericksburg,United States,VA,1017 Sophia Street,38.30501,-77.45897
0b3d8ad5-032e-437a-a8a4-1cfdc8867f60,109 Volvo Pkwy Chesapeake VA 23320,Chesapeake,United States,VA,109 Volvo Parkway,36.7642,-76.24865
0b44d936-8f08-4876-9468-78bf874ebe6a,2983 Richmond Hwy Ste 104 Stafford VA 22554,Stafford,United States,VA,2983 Jefferson Davis Highway,38.46787,-77.40338
0b450232-1688-4ba4-af00-a18bfdff1587,3584 E Stratford Rd,Virginia Beach,United States,VA,Virginia Beach,36.90753,-76.0965
0b48d3b0-f38b-4766-990b-e7606b4b7e64,12551 Jefferson Commons Newport News VA 23602,Newport News,United States,VA,12551 Virginia 143,37.12933,-76.51454
0b4b8613-199d-463d-90c8-507a36cd7825,4017 Williamson Rd NW Roanoke VA 24012,Roanoke,United States,VA,4017 Williamson Road,37.30988,-79.94893
0b58b5d6-5d1c-43f7-bdcb-aa4d28cad8aa,605 Newmarket dr N,Newport News,United States,VA,28,37.02211,-76.44251
0b5a406e-a09d-4894-b142-950078b8756f,808 Lynnhaven Pkwy VA Virginia Beach 23452 7202 United States,Virginia Beach,United States,VA,Virginia Beach,36.81192,-76.06988
0b5ac1f1-4e33-4251-8e9d-449b2fbb0d22,7133C Columbia Pike Annandale VA 22003,Annandale,United States,VA,7130 Little River Turnpike,38.83134,-77.19203
0b5b3047-bf80-4f81-8f87-42835b51428b,13836 Smoketown Rd Woodbridge VA 22192,Woodbridge,United States,VA,13836 Smoketown Road,38.65302,-77.30585
0b63dad4-5098-47b1-bb2b-59af1d79ade6,6227 Little River Tpke Alexandria VA 22312,Alexandria,United States,VA,6231 Little River Turnpike,38.8173,-77.14175
0b69784e-303d-4401-a656-3baa5301d4d9,101 N Broad St Kenbridge VA 23944,Kenbridge,United States,VA,,36.96366,-78.12425
0b6cf0b1-8b88-473d-88cd-fe45f4ed3592,1601 Hilltop W Virginia Beach VA 23451,Virginia Beach,United States,VA,1601 Hilltop West Shopping Center,36.85186,-76.02117
0b6f371d-4cc8-4394-8540-4903a6fbd7df,2301 Colley Ave Ste K Norfolk VA 23517,Norfolk,United States,VA,2019 Colley Avenue,36.87271,-76.29658
0b730db5-4e8e-4800-aa9a-e0b65ec7b1a1,6205 A Portsmouth Blvd,Portsmouth,United States,VA,,36.8214,-76.39138
0b749ce8-89c9-4eb0-ae45-238cacffa1e5,2337 W Broad St,Richmond,United States,VA,The Fan,37.5596,-77.46599
0b766a5c-e520-437b-b918-abd5dcd768c7,5044 Keagy Rd Ste 106 Roanoke VA 24018,Roanoke,United States,VA,5044 Keagy Road,37.25064,-80.0379
0b773cbf-7767-4978-843f-2384bb5d9b6b,2404 Orange Ave NE Roanoke VA 24012,Roanoke,United States,VA,2404 Orange Avenue Northeast,37.2913,-79.90911
0b8c7ed8-f28a-4057-b6b9-c0be23786e03,4820 Hampton Blvd VA Norfolk 23508 United States,Norfolk,United States,VA,Norfolk,36.88759,-76.3022
0ba1b79e-c66b-4a6b-bbb8-03039a36c70c,4320 Holland Rd Virginia Beach VA 23452,Virginia Beach,United States,VA,4314 Holland Road,36.82142,-76.11963
0ba1e2ae-499b-4cb3-a142-ed906a39c274,656 S Pickett St Alexandria VA 22304,Alexandria,United States,VA,656 South Pickett Street,38.80404,-77.13242
0ba87373-95b4-4633-8e4f-1220e2828d2c,2727 Azalea Garden Rd Norfolk VA 23513,Norfolk,United States,VA,,36.88022,-76.22645
0bc9f656-d4eb-4c96-8d42-10a605460e33,3131 W Cary St VA Richmond 23221 3503 United States,Richmond,United States,VA,Richmond,37.55331,-77.48162
0bd2ae27-95a4-4da4-b51c-c2d9f076ff69,12120 Fairfax Towne Ctr Fairfax VA 22033,Fairfax,United States,VA,12156 Fairfax Towne Center,38.86698,-77.36661
0bd6e3be-a510-4afd-954c-1ee67db52fe6,4000 Wilson Blvd VA Arlington 22203 United States,Arlington,United States,VA,Arlington,38.87959,-77.10803
0bd99ff4-eb3b-49f4-82ec-7401b3a1a731,2676 A Avenir Place,Vienna,United States,VA,2676 Avenir Place,38.88122,-77.23045
0bdef01d-c6da-4c0a-a8c4-1702cd543199,2920 District Avenue,Fairfax,United States,VA,2920 District Avenue,38.87138,-77.23064
0bdff765-d00b-48c1-80a7-d25483201368,11049 West Broad Street,Glen Allen,United States,VA,11000 West Broad Street,37.64744,-77.59126
0be7d6db-44b8-423d-817f-2d9db378d839,11657 N Lakeridge Pkwy Ste A Ashland VA 23005,Ashland,United States,VA,11657 Lakeridge Parkway,37.71796,-77.45271
0bee1f05-ba04-48ab-8e43-750dc0a8dde8,11712 Jefferson Avenue VA Newport News 23606 United States,Newport News,United States,VA,Newport News,37.07961,-76.47667
0bf14741-7d7e-4d7d-b48b-5bfd566a74a9,938 N Main St Suffolk VA 23434,Suffolk,United States,VA,926 North Main Street,36.74463,-76.582
0bf14a83-6cde-4f72-a6af-0f5cca69c996,3525 Richmond Hwy Alexandria VA 22305,Alexandria,United States,VA,3425 Richmond Highway,38.83666,-77.05105
0bf4d350-899d-4410-92dd-a9f9415ebc21,11130 J S Lakes Dr Reston VA 20191,Reston,United States,VA,11130 South Lakes Drive,38.93927,-77.33043
0bf5d487-37be-449b-aa60-f499ae57b0a0,4600 Millridge Pkwy Midlothian VA 23112,Midlothian,United States,VA,4602 Millridge Parkway,37.4223,-77.64883
0bfeb89e-e449-4e6b-9768-553cf34df2a7,5113 Oaklawn Blvd Hopewell VA 23860,Hopewell,United States,VA,5113 Oaklawn Boulevard,37.26078,-77.32691
0c00aabd-7e11-470b-b29e-3efe16359a87,4513 Duke St Alexandria VA 22314,Alexandria,United States,VA,4513 Duke Street,38.81276,-77.10993
0c00ed1a-eddc-496b-9df4-9e9093009865,5044 Keagy Rd Village Ctr Roanoke VA 24018,Roanoke,United States,VA,5044 Keagy Road,37.25064,-80.0379
0c0fa0a6-060f-4f8e-9d62-b6c2c4c4a6a4,6316 Springfield Plz Springfield VA 22150 3431,Springfield,United States,VA,6316 Springfield Boulevard,38.78169,-77.18717
0c0fd1dc-97a7-4e65-8252-c7c7c311c1ab,8401 Hampton Blvd Ste 11 Norfolk VA 23504,Norfolk,United States,VA,8401 Hampton Boulevard,36.93015,-76.31961
0c13a2eb-05d0-40c1-a698-7f4b1921a9bf,14595 Potomac Mills Rd Woodbridge VA 22192,Woodbridge,United States,VA,14595 Potomac Mills Road,38.63542,-77.29695
0c1d4921-25b5-493d-87ab-4892c11b1eea,1025 N Fillmore Street,Arlington,United States,VA,Clarendon,38.88567,-77.09257
0c2b7bc3-a6d6-4c72-a2ae-9d523403eb86,8 Victory Blvd VA Poquoson 23662 1947 United States,Poquoson,United States,VA,Newport News,37.12475,-76.39415
0c2c0310-424f-402a-b2c5-d9c54b6b2626,704 Mariner Row Ste 110 Newport News VA 23606,Newport News,United States,VA,704 Mariners Row,37.08579,-76.47258
0c31d96b-8a1d-446c-87c6-862b90791366,4350 Pouncey Tract Rd Skate Nation Ice Rink Richmond VA 23060,Richmond,United States,VA,Short Pump,37.65511,-77.61378
0c41b364-a259-4c64-8ddc-801d7ebb649a,4504 Challenger Ave Roanoke VA 24012,Roanoke,United States,VA,4510 Challenger Avenue Northeast,37.32302,-79.87234
0c4d9ee2-78a4-49b8-96a5-5b9cbee18ed5,123 W Broad St VA Richmond 23220 4214 United States,Richmond,United States,VA,Richmond,37.54636,-77.4439
0c52472f-d0fe-4ac3-aa96-ee77e7f13d3a,1210 E Cary St,Richmond,United States,VA,Richmond,37.53567,-77.43407
0c5981b1-38b5-4b9f-8f4e-51a50622f6ce,1700 Willow Lawn Dr 105 Richmond VA 23230,Richmond,United States,VA,Willow Lawn,37.58389,-77.49829
0c6376dc-64be-48ef-9e82-0ecc6e3704bf,157 Kane St Gate City VA 24251,Gate City,United States,VA,,36.63853,-82.57493
0c64a65e-39b5-4f5d-9643-18556182bee3,2200 Crystal Dr VA Arlington 22202 United States,Arlington,United States,VA,Arlington,38.8532,-77.04971
0c682e70-3c57-409a-a25e-4986b58817f0,1 Saarinen Cir Concourse C Gate C 11 Dulles Int l Airport Dulles VA 20166,Dulles,United States,VA,,38.95272,-77.44777
0c6ea976-2ea0-4a9c-b258-50b7a4c66175,1715 Pratt Dr Ste 1200 Blacksburg VA 24061,Blacksburg,United States,VA,1715 Pratt Drive,37.20471,-80.412
0c70aaf6-54c1-441c-b991-e5f57f9999ff,108 Town And Country Ln Charlottesville VA 22911,Charlottesville,United States,VA,2005 Abbey Road,38.03393,-78.44939
0c71894e-663a-4da3-aebb-2432cab033ac,203 Harrison St SE Leesburg VA 20175,Leesburg,United States,VA,Leesburg,39.11252,-77.56312
0c7c4b08-79d2-41b4-a402-5e88fb858e31,2849 Main St VA Hot Springs 24445 United States,Hot Springs,United States,VA,Hot Springs,37.99985,-79.83178
0c7d3d44-62a9-4e4c-8294-b20230c74e33,2227 Blvd Colonial Heights VA 23834,Colonial Heights,United States,VA,2227 Boulevard,37.26109,-77.41097
0c91e700-8b0c-41aa-968f-f5bd7ad88614,400 S Maple Ave VA Falls Church 22046 United States,Falls Church,United States,VA,Falls Church,38.88059,-77.17695
0c9b58fc-643d-4284-98fc-d7ce73cbf405,4344 Electric Rd Roanoke VA 24018,Roanoke,United States,VA,4464 Electric Road,37.23107,-79.9771
0caa61ff-4a20-4e08-a02f-63e9b126a361,14383 Newbrook Dr Ste 100 Chantilly VA 20151,Chantilly,United States,VA,Centreville,38.87752,-77.44253
0cc6f4fd-22a1-4e41-b48a-d6433f0f13ad,4508 Commonwealth Centre Parkway,Midlothian,United States,VA,4508 Commonwealth Centre Parkway,37.41913,-77.63268
0cd0cf4d-ec8c-4c0b-a919-8d44aef4b381,23520 Overland Dr Ste 108 Sterling VA 20166,Sterling,United States,VA,23520 Overland Drive,38.96209,-77.49699
0cd27b2b-7e82-4610-be9c-2410e0410064,11910 Market Street,Reston,United States,VA,11910 Market Street,38.95898,-77.3575
0cd731b7-99ce-4e5c-999e-de6e6d317c87,1101 W Pembroke Ave Hampton VA 23661,Hampton,United States,VA,1101 West Pembroke Avenue,37.02576,-76.36461
0cd8cc25-07d6-4b2c-a42f-6f422ce6d266,19327 Leesville Rd Lynchburg VA 24502,Lynchburg,United States,VA,,37.32294,-79.22874
0cdb6e05-acb2-4441-8adc-10e5b5fe845f,300 28th St VA Virginia Beach 23451 United States,Virginia Beach,United States,VA,Virginia Beach,36.85607,-75.97851
0ce0c607-4e43-4e9c-b09e-331d6df9abe0,46300 Potomac Run Plaza Suite 120 VA Sterling 20164 United States,Sterling,United States,VA,Sterling,39.02671,-77.39732
0ce5c07f-15f7-46d3-8c0a-c393c4894364,5081 Waterway Dr Montclair VA 22025,Montclair,United States,VA,,38.61018,-77.35812
0ce76ba0-bb08-466d-97df-dbdde19ce004,3232 Shore Dr Virginia Beach VA 23451,Virginia Beach,United States,VA,,36.90891,-76.08429
0ce8b9b1-4a09-4d77-9f6a-25b3afe8525e,20376 Exchange St Ashburn VA 20147,Ashburn,United States,VA,Ashburn,39.05242,-77.45375
0ce934fb-d82a-4a9a-aa61-8474d97b0ccf,11280 Patterson Ave Richmond VA 23238,Richmond,United States,VA,11280 Patterson Avenue,37.598,-77.62133
0ceab3d2-c705-4201-a772-a7d1d9bf7fa1,1351 Central Park Boulevard,Fredericksburg,United States,VA,1638 Carl D Silver Parkway,38.3027,-77.51162
0cef2a35-6b63-49ec-b806-16e2d1041df2,261 Garrisonville Rd VA Stafford 22554 United States,Stafford,United States,VA,Stafford,38.47425,-77.41745
0d064ae2-bcef-4940-88fa-6b98201ea69c,237 Hanbury Rd E Chesapeake VA 23322,Chesapeake,United States,VA,237 Hanbury Road,36.68618,-76.22423
0d0d454d-92f8-4295-9771-01a9c327e8ec,1836 Abbey Rd Charlottesville VA 22911,Charlottesville,United States,VA,2005 Abbey Road,38.03001,-78.44666
0d100b05-9d5a-4d92-840e-f7c30a9792b9,817 Botetourt Ct Ste 102 Chesapeake VA 23320,Chesapeake,United States,VA,817 Botetourt Court,36.74935,-76.24419
0d111724-3864-4730-afb6-bd00cf4a4d56,4617 Wilson Blvd VA Arlington 22203 United States,Arlington,United States,VA,Arlington,38.87922,-77.11754
0d123d4a-82cc-48ca-ae72-609a3b7599b1,421 E Franklin St Richmond VA 23219,Richmond,United States,VA,Downtown,37.54109,-77.43942
0d44f2b8-cd93-404b-9281-557a174318f3,24630 Dulles Landing Dr Ste 135 Sterling VA 20166,Sterling,United States,VA,24630 Dulles Landing Drive,38.93721,-77.52033
0d4d6129-1ea1-4af6-96af-a5cf601f688f,1412 Richmond Rd Williamsburg VA 23185,Williamsburg,United States,VA,1412 Richmond Road,37.28699,-76.72215
0d52ea5a-c48e-4de8-9775-c1041f3cac09,6119 Indian River Rd Virginia Beach VA 23464,Virginia Beach,United States,VA,6119 Indian River Road,36.81307,-76.20731
0d54266f-1150-48a1-9882-61023c69ef38,3500 Virginia Ave Collinsville VA 24078,Collinsville,United States,VA,3500 Virginia Avenue,36.72743,-79.91746
0d55f9d7-5a52-4e8d-8274-fccf4bb5336d,1294 Stoney Point Rd Charlottesville VA 22911,Charlottesville,United States,VA,1192 Richmond Road,38.03464,-78.45535
0d630b92-c01f-4afa-9b5a-562d18a944c0,215 Craghead St VA Danville 24541 United States,Danville,United States,VA,Danville,36.5876,-79.39001
0d651f66-0f12-4eb2-ae1d-01d2ee9fdeb8,8124 Sudley Rd Manassas VA 20109,Manassas,United States,VA,8124 Sudley Road,38.779,-77.50991
0d72446c-07f9-4520-96d3-c2af54e1a706,300 28th St Virginia Beach VA 23451,Virginia Beach,United States,VA,300 28th Street,36.85603,-75.97862
0d835e40-4d72-4635-8861-7fbcd4328a76,5793 Three Notched Road,Crozet,United States,VA,Suite 101,38.06973,-78.70005
0d891f4a-7f20-4f21-970f-bcb96d8b7dd8,130 N Washington St VA Falls Church 22046 United States,Falls Church,United States,VA,Arlington,38.88248,-77.17047
0d89cdab-4b1d-4835-9d21-cd628aec279a,12713 Braemar Village Plz Bristow VA 20136,Bristow,United States,VA,12713 Braemar Village Plaza,38.75089,-77.57069
0d982964-3e62-47a4-84dd-2746aa394e53,5113 W Mercury Blvd Newport News VA 23605,Newport News,United States,VA,111 Newmarket Drive North,37.02175,-76.43846
0da20a12-71c1-488c-9f8c-cd8669f000a0,6119 Backlick Rd Springfield VA 22150,Springfield,United States,VA,6121 Backlick Road,38.7837,-77.18531
0da5c992-a276-4073-81ef-4f31352076e6,6168 Arlington Blvd VA Falls Church 22044 United States,Falls Church,United States,VA,Arlington,38.88631,-77.17177
0da5f3cd-a4a2-445b-8652-ea155918c2b6,4200 Portsmouth Blvd Chesapeake VA 23321,Chesapeake,United States,VA,4200 Portsmouth Boulevard,36.82728,-76.41511
0daafaf4-9f09-47ac-b668-c8d2610d91d7,16 Elliewood Ave Charlottesville VA 22902,Charlottesville,United States,VA,16 Elliewood Avenue,38.03635,-78.50059
0db27901-a37c-4855-88d2-c7815544e74b,203 Union St Occoquan VA 22125,Occoquan,United States,VA,203 Union Street,38.6836,-77.26068
0dbd7634-9689-42b0-aa46-857b46204dbe,16955 Forest Rd Ste K Forest VA 24551,Forest,United States,VA,16955 Forest Road,37.36603,-79.25989
0dbeffa2-4f93-489e-aff7-9aa724174d4c,1263 W Riverside Dr Salem VA 24153,Salem,United States,VA,,37.28553,-80.08027
0dc9659d-1a35-49c7-a955-fbf6a363638a,2828 Fallfax Dr Falls Church VA 22042,Falls Church,United States,VA,2828 Fallfax Drive,38.87593,-77.20885
0dcbd156-201e-400e-9a8a-680a9667cfeb,4813 Valley View Blvd NW VA Roanoke 24012 2018 United States,Roanoke,United States,VA,Roanoke,37.30695,-79.96519
0dd3ed85-93ab-44da-a69f-d14f2623f9d8,247 Kane Street Gate City VA 24251,Gate City,United States,VA,,36.63825,-82.56928
0de248d0-dcdc-4816-95e9-6f8015320abe,1406 E Pembroke Ave Hampton VA 23663,Hampton,United States,VA,,37.03345,-76.32092
0de5cf45-9131-4c9b-a90e-629b8cd024e9,50 S Pickett St Ste 23 Alexandria VA 22304,Alexandria,United States,VA,5145 Duke Street,38.81105,-77.12123
0deb0b22-ae75-4528-8a96-3b6091f6d1a8,350 University Blv,Harrisonburg,United States,VA,350 University Boulevard,38.42861,-78.85222
0ded07bd-23cd-4872-9cfa-257c4829e5a5,3101 Virginia Beach Blvd Virginia Beach VA 23452,Virginia Beach,United States,VA,3101 Virginia Beach Boulevard,36.8427,-76.07891
0df02efa-206f-49ce-8bcd-192d45550170,10467 White Granite Dr Oakton VA 22124,Oakton,United States,VA,,38.87294,-77.30722
0dfb22c7-8b20-430a-84e3-0629c145b513,1731 Gilbert St Bldg C 9 Norfolk VA 23511,Norfolk,United States,VA,,36.94713,-76.31761
0e053daa-2953-4415-94ad-08550c8b00fe,6555 Mechanicsville Turnpike Mechanicsville VA 23111,Mechanicsville,United States,VA,6555 Mechanicsville Turnpike,37.61241,-77.33489
0e07e003-0635-4d0b-9bd1-9bba4f145d0a,1202 E Main St,Radford,United States,VA,,37.14117,-80.55836
0e0ad14f-9909-4b27-962c-5aa24b7c10c1,15488 Warwick Blvd Ste A Newport News Newport News VA 23608,Newport News,United States,VA,15505 Warwick Boulevard,37.15709,-76.55564
0e0e8b4e-2d45-4771-838f-0a0794b44d61,3309 Old Forest Rd Lynchburg VA 24501,Lynchburg,United States,VA,3309 Old Forest Road,37.40985,-79.21334
0e0ebdf6-4273-45ec-a730-45b193a01ee9,11321 Nuckols Rd Ste A Glen Allen VA 23059,Glen Allen,United States,VA,11321 Nuckols Road,37.6836,-77.58972
0e18b686-6e96-4364-9838-73fdb236661e,6403 Rigsby Rd Richmond VA 23226,Richmond,United States,VA,6406 Horsepen Road,37.59588,-77.51543
0e18f1d5-2323-4533-bfb2-7a4abcc42da2,70 Riverton Commons Plz Ste B 100 Front Royal VA 22630,Front Royal,United States,VA,130 Riverton Commons Drive,38.96349,-78.18823
0e1eee5e-7fc2-4b3d-8e32-a6d2930caf0f,4316 Markham St Ste D Annandale VA 22003,Annandale,United States,VA,7331 Little River Turnpike,38.8303,-77.20104
0e281830-3586-4add-9468-556504311405,14101 Midlothian Turnpike Kroger Midlothian VA 23113,Midlothian,United States,VA,14235 Midlothian Turnpike,37.50462,-77.66376
0e2cec50-b3d1-45d3-a95f-2b79822bfe14,409 Maple Ave W Vienna VA 22180,Vienna,United States,VA,Vienna,38.89616,-77.27261
0e2f965a-7d85-4c27-a76f-ac880445fb90,305 Rivanna Plaza Dr Ste 101 Charlottesville VA 22901,Charlottesville,United States,VA,431 Gander Drive,38.09134,-78.46902
0e3f30df-8fd4-4648-ae4e-cbcd541d1055,5660 Indian River Rd Suite 125,Virginia Beach,United States,VA,Virginia Beach,36.80601,-76.18946
0e4bbb9b-fd4f-4bdc-886d-b74d4fbe8d0d,6387 Seven Corners Shopping Ctr Falls Church VA 22044,Falls Church,United States,VA,6387 Seven Corners Center,38.86713,-77.15067
0e50f07c-2bb2-4fee-a094-58e6389dffd8,9661 Fairfax Blvd Fairfax VA 22031,Fairfax,United States,VA,9661 Fairfax Boulevard,38.86305,-77.2784
0e5b1096-ab5e-45fb-8ba4-8abe4a4ad362,14000 Foulger Square Woodbridge VA 22192,Woodbridge,United States,VA,14000 Foulger Square,38.65449,-77.30535
0e5d094b-cd22-4dd2-8a9c-dd6bc11a39cf,1320 Braddock Pl,Alexandria,United States,VA,1320 Braddock Place,38.81512,-77.05232
0e6714a8-d52d-4aed-ad62-fbc31dbeebc5,110 Cornerstone St Lynchburg VA 24502,Lynchburg,United States,VA,112 Cornerstone Street,37.33999,-79.22468
0e671cbe-a2a6-47cc-94c4-c43b7d9a0fb4,2736 Atlantic Ave Virginia Beach VA 23451,Virginia Beach,United States,VA,Virginia Beach,36.85612,-75.97751
0e775dd5-43a6-40f9-b1f1-cba28c3add39,4501 S Laburnum Ave Unit 597 Richmond VA 23231,Richmond,United States,VA,4501 South Laburnum Avenue,37.52663,-77.35292
0e796095-f3a4-4146-8bb0-45d9df1c8daf,Ronald Reagan Airport Arlington VA 22202,Arlington,United States,VA,,38.85418,-77.04139
0e80ed3c-2db1-4a48-ba5b-d466d744ce57,3388 Princess Anne Rd Virginia Beach VA 23456,Virginia Beach,United States,VA,3388 Princess Anne Road,36.77477,-76.08858
0e85a5b3-869a-49b6-aa65-1c975654b731,7150 Farm Station Rd VA Warrenton 20187 United States,Warrenton,United States,VA,Warrenton,38.74339,-77.67459
0e8b7d86-cf85-4df1-98a7-0cc58d1c781f,260 Cedar Ln Vienna VA 22180,Vienna,United States,VA,262 Cedar Lane,38.88691,-77.24332
0e90934d-7faf-41f3-882d-b010ffd93d02,7700 F Richmond Hwy Alexandria VA 22306,Alexandria,United States,VA,7700 Richmond Highway,38.74932,-77.08873
0e91b698-b6f6-4863-867b-5c2062d26ce8,609 East Main Street Unit A,Purcellville,United States,VA,609 East Main Street,39.13756,-77.70718
0e923c08-e0cc-4897-a575-fc3de7ac75a8,1405 Harper's rd,Virginia Beach,United States,VA,1405 Harpers Road,36.79928,-76.00885
0e929389-b2a7-42e5-9e49-78edc840a88a,1307 Shenandoah Rd Alexandria VA 22308,Alexandria,United States,VA,1307 Shenandoah Road,38.74179,-77.05679
0e9c8836-579e-4e85-9871-763d829757d6,1920 Centerville Tpke Ste 108 Virginia Beach VA 23464,Virginia Beach,United States,VA,1920 Centerville Turnpike,36.7789,-76.18994
0e9f1284-417f-4c11-ab51-04a9459da794,11282 James Swart Cir Fairfax VA 22030,Fairfax,United States,VA,11250 James Swart Circle,38.85529,-77.3346
0eaa8683-6ac2-4c1b-90ba-55a40739efce,12300 Jefferson Ave Ste 909 Newport News VA 23602,Newport News,United States,VA,12300 Jefferson Avenue,37.11266,-76.49562
0eb1f60f-ea29-4f92-be09-2a51080c1255,1536 Kenwood Ave,Alexandria,United States,VA,Stelmosfairlington gmail Com,38.82963,-77.0854
0eb25ee6-44e0-4ec1-8439-5ff26b163336,12721 Harbor Drive Lake Ridge VA 22192,Lake Ridge,United States,VA,12721 Harbor Drive,38.67741,-77.27891
0eba9a55-c9c4-407f-b329-44a2989b674a,3971 Chain Bridge Rd VA Fairfax 22030 United States,Fairfax,United States,VA,Fairfax,38.84692,-77.30618
0ebc43e5-24e3-4ed3-8a1c-c727f024b10d,1585 General Boothe Blvd Virginia Beach VA 23454,Virginia Beach,United States,VA,1581 General Booth Boulevard,36.7871,-75.99923
0ec4154a-c6ad-4630-b93e-c487497cf1bb,15816 Wc Main St Midlothian VA 23113,Midlothian,United States,VA,15816 Wc Main Street,37.51549,-77.69256
0ecaf8c9-3140-4262-820e-44546e23eee3,601 Thimble Shoals Blvd Newport News VA 23606,Newport News,United States,VA,601 Thimble Shoals Boulevard,37.08473,-76.48063
0ecc8bc4-30a0-4456-848d-ac537d6a10cf,1640 General Booth Blvd,Va Beach,United States,VA,1660 General Booth Boulevard,36.78332,-76.00013
0ed940ab-b63e-4d3d-ad98-e0723136c78d,693 N Washington St Alexandria VA 22314,Alexandria,United States,VA,Old Town Alexandria,38.81167,-77.04531
0ef75d77-b671-4bc1-82c9-190ccc9f730a,12701 Shoppes Ln Fairfax VA 22033,Fairfax,United States,VA,12701 Shoppes Lane,38.8611,-77.38647
0f016642-3f7c-440d-ae2b-3547f0b031b1,5811 Grove Avenue VA Richmond 23226 United States,Richmond,United States,VA,Richmond,37.57261,-77.51967
0f07f9f7-9047-4d20-bb48-80a25f3cd9eb,9410 W Broad St Richmond VA 23294,Richmond,United States,VA,9410 West Broad Street,37.63865,-77.55411
0f0dcef1-803c-4564-810c-7785e8da8df5,525 E Market St Ste J Leesburg VA 20176,Leesburg,United States,VA,525 East Market Street,39.10819,-77.55267
0f1f0495-d855-4719-8ca8-cee2aaeec4d4,1320 Kempsville Rd Ste 111 Chesapeake VA 23320,Chesapeake,United States,VA,1320 Kempsville Road,36.76191,-76.20274
0f25810d-993e-4966-8bb3-807e89919314,2611 Hundred Rd W Chester VA 23831,Chester,United States,VA,12760 U S 1,37.35464,-77.41424
0f2ffb0d-8d08-4692-ba10-c47f755d12da,3118 East Princess Anne Rd Norfolk VA 23504,Norfolk,United States,VA,3118 East Princess Anne Road,36.86073,-76.24911
0f30ee40-8684-4e19-bdae-4b2d489237ac,1717 Oak Lake Boulevard,Midlothian,United States,VA,,37.45609,-77.62565
0f3a2e5a-7c63-46b6-8154-1b3488644aff,3716 Mechanicsville Tpke Richmond VA 23223,Richmond,United States,VA,3716 Mechanicsville Turnpike,37.57679,-77.39662
0f3c3dd0-a89c-42e1-ae39-23d984bc2ad4,2605 S Clark St Terminal A B227 Reagan National Airport Arlington VA 22202,Arlington,United States,VA,,38.84712,-77.0427
0f3ebf16-87bd-4063-b3a2-6716cb7e9e78,1920 Daniel Stuart Sq Woodbridge VA 22191,Woodbridge,United States,VA,1920 Daniel Stuart Square,38.63146,-77.274
0f428a7d-63ee-4c43-b303-72cc203c5558,3111 Worth Crossing,Charlottesville,United States,VA,,38.0886,-78.4287
0f434fbe-66bb-4110-bfa9-688afab453cc,8032 Leesburg Pike,Vienna,United States,VA,Tysons,38.91395,-77.22296
0f489651-b1a4-4af9-9605-d79300b78b37,385 Front St Richlands VA 24641,Richlands,United States,VA,,37.09285,-81.78148
0f4a6572-3899-4d42-876a-d282d9bfdeed,41 W Lee Hwy Ste 57 Warrenton VA 20186,Warrenton,United States,VA,41 West Lee Highway,38.73022,-77.79266
0f4de168-119a-4297-a2eb-81c7f01a73f7,3601 Brandon Ave SW Roanoke VA 24018,Roanoke,United States,VA,,37.26595,-80.00736
0f5a35d8-6aa8-4a7c-894c-b2cdbe45d15f,5634 Leesburg Pike VA Falls Church 22041 United States,Falls Church,United States,VA,Baileys Crossroads,38.849,-77.12573
0f64c319-619d-4d70-b2e8-923b9ea7364f,6108C Arlington Blvd Falls Church VA 22044,Falls Church,United States,VA,6108 Arlington Boulevard,38.86864,-77.14402
0f65958d-8b3f-4957-8ccb-6564bc3f775c,4008 Walney Rd Chantilly VA 20153,Chantilly,United States,VA,4054 Walney Road,38.89323,-77.43216
0f7b2fd5-a38e-4d5a-b08a-40f6c10cc59d,1400 Kempsville Rd Ste 134 Chesapeake VA 23320,Chesapeake,United States,VA,1400 Kempsville Road,36.76331,-76.20257
0f9fee48-4afa-449b-9e8d-be86a2435af3,7722 Jefferson Davis Hwy Richmond VA 23237,Richmond,United States,VA,,37.41851,-77.43781
0fa05d22-0970-42be-a957-3029178d372c,3926 Franklin Rd SW Roanoke VA 24014,Roanoke,United States,VA,3926 Franklin Road Southwest,37.22914,-79.96987
0fb91b82-877a-4886-a13a-d3f7494f75d4,3370 Seminole Trl Charlottesville VA 22911,Charlottesville,United States,VA,3370 Seminole Trail,38.12947,-78.43915
0fc2758e-4f73-43e2-9112-cde0fd5f60bf,4029 Campbell Ave The Village at Shirlington,Arlington,United States,VA,4029 Campbell Avenue,38.8411,-77.08786
0fc4596c-525d-4e03-8c16-f165a2c89e48,3981 Chain Bridge Rd Fairfax VA 22030,Fairfax,United States,VA,Old Town Fairfax,38.84646,-77.30615
0fc5f192-acee-412d-8c93-5e33b44c7837,1071 Elden St Herndon VA 20170,Herndon,United States,VA,902 Alabama Drive,38.96599,-77.39611
0fc7fade-9f3f-49a5-96a5-b42452ae69c9,1204 N Royal Ave Front Royal VA 22630,Front Royal,United States,VA,1204 North Royal Avenue,38.93365,-78.19485
0fcf2606-0698-4855-8a19-5c2f83050481,3330 S Crater Rd Petersburg VA 23805,Petersburg,United States,VA,3330 South Crater Road,37.18283,-77.36711
0fe60b8f-2275-471e-8c39-af8544b6a34e,1070 Virginia Center Pkwy Glen Allen VA 23059,Glen Allen,United States,VA,1070 Virginia Center Parkway,37.66696,-77.45884
0fe8679d-ff92-44af-a3a9-6df8682d3cd8,6005 Centreville Crest Ln Centreville VA 20121,Centreville,United States,VA,6007 Centreville Crest Lane,38.83696,-77.43373
0feb45ba-3c08-4807-9bc8-a77ab9602065,3099 Jeerson Ave Ste 103 Newport News VA 23607,Newport News,United States,VA,3200 Jefferson Avenue,36.98445,-76.42503
0ff30854-f15e-4f35-b01f-6a0fe4fb4107,9536 Lee Hwy Fairfax VA 22031,Fairfax,United States,VA,9536 Lee Highway,38.86636,-77.27488
0ff56fb7-1546-407d-b66b-f095e1d054e3,10428 Jessie Dupont Memorial Hwy Kilmarnock VA 22482,Kilmarnock,United States,VA,,37.73944,-76.36332
0ff70cc6-7b01-4520-bf80-9dcee1d743ec,641 Battlefield Blvd N Chesapeake VA 23320,Chesapeake,United States,VA,109 Gainsborough Square,36.74087,-76.24228
100f789c-fc31-4035-a384-167724372e53,1495 Stafford Marketplace Ste 121 Stafford VA 22556,Stafford,United States,VA,Stafford,38.4704,-77.41159
10140847-8039-48b7-9ab0-b9c96ede3f1c,12233 Jefferson Ave Ste 1 Newport News VA 23602,Newport News,United States,VA,Newport News,37.1101,-76.49941
10142321-2e5c-491f-85a6-2988d928905e,2425 Robert E Lee Rd,Powhatan,United States,VA,,37.5978,-77.81768
1016973e-097c-4aad-a3f7-63f336da0776,22074 Railcar Dr Sterling VA 20164,Sterling,United States,VA,22074 Railcar Drive,39.00524,-77.43027
101d09bf-00e3-4dc4-90a6-d19183888688,6765 Wilson Blvd Falls Church VA 22044,Falls Church,United States,VA,6795 Wilson Boulevard,38.8741,-77.15484
101fe44e-f82b-4ad0-b918-58f37e09ea46,12853 Braemar Village Center,Bristow,United States,VA,Braemar Village Plaza,38.74943,-77.57167
102eb778-0c2f-428f-b503-64741d55d69c,5958 Centreville Crest Ln Centreville VA 20121,Centreville,United States,VA,5958 Centreville Crest Lane,38.83805,-77.43472
10368c0d-e069-458f-936b-6a31c16bf89c,4100 N Fairfax Dr VA Arlington 22203 United States,Arlington,United States,VA,Arlington,38.88186,-77.10965
103e1066-67e3-461b-90d1-2b6d5e0f1b04,10416 Main St VA Fairfax 22030 United States,Fairfax,United States,VA,Fairfax,38.84629,-77.30602
103e564c-93ca-4c11-9290-41c7f3c6666e,2444 Valley Ave Winchester VA 22601,Winchester,United States,VA,2584 Valley Avenue,39.15828,-78.18564
103f8871-93fb-41cb-a119-8704792e5ffb,13607 Richmond Hwy Woodbridge VA 22191,Woodbridge,United States,VA,13607 Jefferson Davis Highway,38.65656,-77.25039
1048cfa6-eaca-4acf-8aaa-2aed0156167e,1 Columbus Ctr Ste 104 Virginia Beach VA 23462,Virginia Beach,United States,VA,Virginia Beach,36.8425,-76.13241
104bacff-d8cb-41e8-8e84-7d557efc179f,7314 Bell Creek Rd Mechanicsville VA 23111,Mechanicsville,United States,VA,7324 Bell Creek Road,37.60527,-77.35476
104d540e-d5a1-4129-bc72-c87b9a2049c0,1307 Atlantic Avenue,Virginia Beach,United States,VA,Virginia Beach,36.84284,-75.97289
105291d5-ac2f-4798-9902-dd53e8364260,1344 Main St VA Lynchburg 24504 United States,Lynchburg,United States,VA,Lynchburg,37.41065,-79.13811
1055a216-74c2-436b-9a8e-de8e0a77b509,4299 Chantilly Shopping Ctr Ste 105 Chantilly VA 20151,Chantilly,United States,VA,4299 Chantilly Shopping Center,38.88692,-77.44191
105736ff-6033-4e15-971e-00a66e4e1470,735 Warrenton Rd Fredericksburg VA 22406,Fredericksburg,United States,VA,740 Warrenton Road,38.35119,-77.50636
105e263f-ac79-4d09-a508-775c30d9a0d5,329 2nd St Williamsburg VA 23185,Williamsburg,United States,VA,329 2nd Street,37.27311,-76.68318
105e852d-1abe-4159-8648-ed04fc7dd910,7707 Williamson Rd Roanoke VA 24019,Roanoke,United States,VA,,37.34923,-79.94616
1060044d-1425-4107-a0f2-8e375cd08594,9410 Jefferson Davis Hwy Richmond VA 23237,Richmond,United States,VA,,37.39588,-77.43065
10648aba-c161-48a5-95d5-1aa05d2b35cd,118 American Legion Rd Chesapeake VA 23321,Chesapeake,United States,VA,3148 Western Branch Boulevard,36.86519,-76.40338
1066709a-0bdf-445e-b875-a61f0e1937d8,2137 Wards Rd Lynchburg VA 24502,Lynchburg,United States,VA,2135 Wards Road,37.37198,-79.1845
106b2722-7ddb-46cb-8617-79b34d17e121,22855 Brambleton Plaza 108,Brambleton,United States,VA,22855 Brambleton Plaza,38.98502,-77.53708
106c8512-0fdc-4e95-8ffa-a6aa5b25edff,11 W Broad St Richmond VA 23220,Richmond,United States,VA,,37.2927,-76.49
106cfdf1-7077-4fb7-ac54-62978b450a4a,7121 Williamson Rd N E Roanoke VA 24019,Roanoke,United States,VA,7234 Williamson Road,37.34479,-79.95528
1072e8e9-3e17-4d99-8de4-7b4041a201dd,14698 Lee Hwy Gainesville VA 20155,Gainesville,United States,VA,14698 Lee Highway,38.79326,-77.6278
10745487-4bc1-46a4-aaca-82105896d83b,5726 Hopkins Rd Richmond VA 23234,Richmond,United States,VA,5726 Hopkins Road,37.44329,-77.47473
10a6d07b-d0a8-442a-ae4d-4811155cd95a,12715 Warwick Blvd Unit A Newport News VA 23606,Newport News,United States,VA,12715 Warwick Boulevard,37.08817,-76.50209
10b726e3-9d9e-4d76-8443-fdb61ac4bb0b,1304 Grandin Rd SW Roanoke VA 24015,Roanoke,United States,VA,Roanoke,37.26559,-79.97686
10b7508f-09fd-4ba3-b469-4a196559adc6,70 N Glebe Rd Arlington VA 22203,Arlington,United States,VA,70 North Glebe Road,38.87134,-77.10214
10b9756d-975f-4fa4-a89f-3a7500cd13c9,13634 Jefferson Davis Hwy Woodbridge VA 22191,Woodbridge,United States,VA,Woodbridge,38.65817,-77.24983
10bf9740-01e7-4944-a94c-3858b521c505,2947 Shore Dr VA Virginia Beach 23451 1212 United States,Virginia Beach,United States,VA,Virginia Beach,36.91081,-76.07387
10cb9e4d-fa26-4c1b-b03f-3f536d423357,3530 Festival Park Plaza,Chester,United States,VA,11844 Chester Village Drive,37.35817,-77.44591
10d50577-ae53-466c-8491-8b04e7fa6478,2 Hidenwood Shopping Ctr Ste 15 Newport News VA 23606,Newport News,United States,VA,17 Hidenwood Shopping Center,37.06955,-76.49482
10d9ff32-7092-4d98-9695-f26a628d4801,150 Elden St Ste 180 Herndon VA 20170,Herndon,United States,VA,150 Elden Street,38.96709,-77.36753
10e02d15-433a-4a71-951c-c559261ccb49,3422 Lauderdale Drive,Short Pump,United States,VA,3434 Lauderdale Drive,37.64376,-77.62905
10e11d8a-d8bd-40bb-87a4-d4d0b6bc557f,7815 Timberlake Rd VA Lynchburg 24502 United States,Lynchburg,United States,VA,Lynchburg,37.35286,-79.22699
10e521fc-f7fe-4ef3-9d72-06e0b9acc1f9,14001 Midlothian Tpke Midlothian VA 23113,Midlothian,United States,VA,14001 Midlothian Turnpike,37.50501,-77.65986
10ee84fa-05e0-4453-9567-9cae3250a120,13969 Metrotech Dr VA Chantilly 20151 United States,Chantilly,United States,VA,Chantilly,38.89605,-77.42669
10fe413e-751d-43bf-89ee-7fdaf8245ff8,620 John Paul Jones Circle,Portsmouth,United States,VA,Food Court,36.84339,-76.30511
110a2e6d-3aa4-4d68-a83b-8100e257b2f0,5926 Kingstowne Blvd Suite 150 VA Alexandria 22315 United States,Alexandria,United States,VA,Alexandria,38.76913,-77.14213
110a6e13-7b07-4fbe-b179-07bd9bdb7aed,13872 Coalfield Commons Pl Ste 102 Midlothian VA 23114,Midlothian,United States,VA,,37.4938,-77.65259
110b3f89-46f7-4a15-af04-e4366f1a093c,401 Granby St Ste B Norfolk VA 23510,Norfolk,United States,VA,401 Granby Street,36.85146,-76.28988
11193ac6-32dc-4b87-bbc5-b613499f7eeb,2577 Cowan Blvd,Fredericksburg,United States,VA,2577 Cowan Boulevard,38.30806,-77.49066
111d9cb7-af8e-4380-8e72-900a96290c1d,3355 Commander Shepard Blvd Hampton VA 23666,Hampton,United States,VA,3355 Commander Shepard Boulevard,37.09306,-76.39325
112c5cd2-6500-4d1f-862d-1d864084086b,1010 Park Ave Norfolk VA 23504,Norfolk,United States,VA,,36.85221,-76.2645
113776d7-e52b-4be3-b497-d0b721b05aa6,1901 Colonial Ave VA Norfolk 23517 United States,Norfolk,United States,VA,Portsmouth,36.86803,-76.29247
113dbc6e-b352-4bb4-a5e5-d6c532e6eb07,537 Warrenton Rd Fredericksburg VA 22406,Fredericksburg,United States,VA,551 Warrenton Road,38.34325,-77.49793
11402da6-695a-4365-8405-6d5c95b14fcd,2089 Chainbridge Rd Vienna VA 22180,Vienna,United States,VA,2089 Chain Bridge Road,38.91572,-77.23789
1144ba17-2b12-4945-8411-5f1d78e93570,1612 Virginia Beach Blvd Virginia Beach VA 23454,Virginia Beach,United States,VA,,36.84281,-76.01844
114aff24-47c7-43ba-a9a6-48ae47e9b2cf,24630 Dulles Landing Drive,Dulles,United States,VA,Suite 135,38.9362,-77.52015
1158df50-b6a1-4618-83d2-aa142817ed42,7730 Midlothian Tpke Richmond VA 23235,Richmond,United States,VA,7714 Midlothian Turnpike,37.49914,-77.54013
115d145c-3f33-44ed-a588-76e82cd679de,1421 W Main St Salem VA 24153,Salem,United States,VA,,37.28993,-80.08116
116bdee1-0eea-4214-b67b-6487bda4dbb3,43670 Greenway Corporate Dr Ste 126 Ashburn VA 20147,Ashburn,United States,VA,43670 Greenway Corporate Drive,39.0103,-77.49232
1178c7c2-bce1-4116-aa83-4e18f97c87ae,15710 Jefferson Davis Hwy Colonial Heights VA 23834,Colonial Heights,United States,VA,15710 Jefferson Davis Highway,37.31006,-77.41024
1184c7cc-43eb-463c-a862-2c6cbf8a7059,7911 Centreville Rd VA Manassas 20111 United States,Manassas,United States,VA,Manassas,38.7832,-77.44925
1185a15a-2118-4d4d-9bae-085c8a28d62b,5004 George Washington Hwy Portsmouth VA 23702,Portsmouth,United States,VA,5101 George Washington Highway,36.79439,-76.32825
1186cd05-5766-4b63-8666-b60b7c08f14e,6395 Seven Corners Ctr VA Falls Church 22044 United States,Falls Church,United States,VA,Arlington,38.86735,-77.15097
11955f40-fd88-44a6-9646-eacc76af8b43,237 S Battlefield Blvd Unit 14B Chesapeake VA 23322,Chesapeake,United States,VA,237 South Battlefield Boulevard,36.71702,-76.23806
11a0d74d-e047-4525-aa4c-e56be27e4e0f,24 Church Avenue SW,Roanoke,United States,VA,413 1st Street Southwest,37.27018,-79.94169
11ad7e62-7473-47e2-9d86-918b6a1335fa,19329 Winmeade Dr Leesburg VA 20176,Leesburg,United States,VA,19329 Winmeade Drive,39.08167,-77.49478
11bcf6cc-89f4-4e5d-9e48-894ce1ed4707,11027 Hull Street Rd Midlothian VA 23112,Midlothian,United States,VA,11027 Hull Street Road,37.43682,-77.5977
11cc8800-7f2a-44fd-a8ba-62e3b8c00632,139 Market St Ste 1 Winchester VA 22603,Winchester,United States,VA,152 Market Street,39.21991,-78.13639
11cf98d0-eb4f-43a4-81fa-6e4549b8b336,767 Village Highway,Rustburg,United States,VA,,37.27635,-79.10138
11d330bb-868b-40c2-a07b-f733e3c3c315,1502 Richmond Rd Williamsburg VA 23185,Williamsburg,United States,VA,1502 Richmond Road,37.29046,-76.72334
11d6c9c3-0edb-4833-b2e6-114d4c07077f,4734 Finlay St Richmond VA 23231,Richmond,United States,VA,4730 Finlay Street,37.51875,-77.35297
11da15d1-04af-4be5-88ea-6a07dfd8d6a3,3252 Holland Rd Virginia Beach VA 23453,Virginia Beach,United States,VA,3244 Holland Road,36.797,-76.08324
11e4e720-8060-4ac6-80db-c431b31d95a0,201 Rock Rd W,Radford,United States,VA,,37.11975,-80.55738
11e6b58c-f963-4022-8d53-7e07c3ba18e7,3221 Duke St VA Alexandria 22314 4533 United States,Alexandria,United States,VA,Alexandria,38.80876,-77.08662
11e72b14-fd57-40a4-a885-69e592affafb,21730 Towncenter Plz Sterling VA 20164,Sterling,United States,VA,21800 Towncenter Plaza,39.01394,-77.37176
11ef569b-d626-4f0a-bc94-ffb301868472,683 W Main St Danville VA 24541,Danville,United States,VA,683 West Main Street,36.5721,-79.41995
12028175-ff0f-44ca-9649-95278613d69d,500 E Broad St Richmond VA 23219,Richmond,United States,VA,Downtown,37.54315,-77.43651
1204af5d-bf97-49a8-a01f-b0c5ad77439a,629 N Main St Danville VA 24540,Danville,United States,VA,,36.59578,-79.38549
1208947f-13e4-46ca-a712-44f00fed8756,7787 Sudley Rd Manassas VA 20109,Manassas,United States,VA,7779 Sudley Road,38.78898,-77.51334
12169bd6-7adc-4378-a2b1-c1d5d18dd800,125 Riverton Commons Plz Riverton Commons Power Center Front Royal VA 22630,Front Royal,United States,VA,125 Riverton Commons Plaza,38.96469,-78.18933
1218e405-b12a-4328-a090-2560c1ca401d,8800 Staples Mill Rd Richmond VA 23228,Richmond,United States,VA,8800 Staples Mill Road,37.63253,-77.50934
1228b721-fa84-44c7-a9ba-c45f93719296,1335 W Broad St Richmond VA 23220,Richmond,United States,VA,The Fan,37.55311,-77.45527
122a70ba-cb2d-41d9-816a-168807b95bce,13470 Minnieville Rd Woodbridge VA 22192,Woodbridge,United States,VA,13580 Foulger Square,38.65666,-77.30626
122bc41d-1ce7-4b44-a47d-69fa9044bc70,124 S Bridge St VA Bedford 24523 United States,Bedford,United States,VA,Bedford,37.33373,-79.52415
122bf2d9-0b38-4016-86c9-3c52f470be92,8510 Patterson Avenue VA Richmond 23229 United States,Richmond,United States,VA,Richmond,37.59512,-77.56461
12374e25-e8f3-4a01-8f35-9453fd0e4211,9901 Southpoint Pkwy VA Fredericksburg 22407 2703 United States,Fredericksburg,United States,VA,Fredericksburg,38.23278,-77.50373
1238b3d1-29c6-49f4-b3be-2f6db75e4a1b,4167 Electric Rd VA Cave Spring 24018 8443 United States,Cave Spring,United States,VA,Roanoke,37.22597,-79.9797
12500df4-dcb5-4a79-a6df-978bc5b7db96,1705 N Emmet St Charlottesville VA 22901,Charlottesville,United States,VA,1705 Emmet Street North,38.05928,-78.4945
12545298-48c3-45db-b399-26d0b882869b,1861 Carl D Silver Pkwy Fredericksburg VA 22401,Fredericksburg,United States,VA,1865 Carl D Silver Parkway,38.30788,-77.51097
125bf847-c6c7-46e4-8e69-0f5220a70133,2104 W Laburnum Ave Ste 104 Richmond VA 23227,Richmond,United States,VA,,37.58484,-77.47194
125ca77a-b2a7-4f59-ac8d-a90d255ee362,3918 Lenox Ave Charlottesville VA 22901,Charlottesville,United States,VA,3918 Lenox Avenue,38.0676,-78.48852
125e76ec-8874-45f5-8312-969db07ffb51,4925 Boonsboro Rd Lynchburg VA 24503,Lynchburg,United States,VA,4925 Boonsboro Road,37.44642,-79.21778
12646391-4ccb-4df3-8277-038b09ccc6c3,3201 Duke Street Alexandria VA 22314,Alexandria,United States,VA,3207 Duke Street,38.8091,-77.08615
1268f09e-d223-4cc9-91f6-14e70037df65,5406 Wisconsin Ave Suite A,Chevy Chase,United States,MD,Friendship Heights,38.96139,-77.08671
126a2d0e-1d77-4ff2-84ca-acaae7d9b350,1605 Village Market Blvd SE Ste 100 VA Leesburg 20175 4688 United States,Leesburg,United States,VA,Leesburg,39.08926,-77.52443
126c0487-8ded-4e0d-8212-43c0aaafad89,722 King Street,Alexandria,United States,VA,Old Town Alexandria,38.80507,-77.04783
1275fa3c-49b1-498d-b444-8aec203d1046,4512 Princess Anne Rd Ste 203 Virginia Beach VA 23462,Virginia Beach,United States,VA,4512 Princess Anne Road,36.80539,-76.13268
1278d542-d9c3-44fc-b591-1ddeb2365018,3380 Princess Anne Rd Ste 115 Virginia Beach VA 23456,Virginia Beach,United States,VA,3380 Princess Anne Road,36.77565,-76.08843
1278e8f3-8a18-47f5-b26a-067db27ffca8,3448 Holland Rd Virginia Beach VA 23452,Virginia Beach,United States,VA,3448 Holland Road,36.80901,-76.09207
127d7d26-8d30-4d4d-a841-55b85245c322,1126 E Stuart Dr Galax VA 24333,Galax,United States,VA,1126 East Stuart Drive,36.6914,-80.88308
1283107f-2305-4385-9dde-29f4c378b2ae,1601 Willow Lawn Dr Richmond VA 23230,Richmond,United States,VA,Willow Lawn,37.58179,-77.49733
